[
  {
    "name": "1 Seafood & Chicken",
    "cuisine": "American",
    "takout_option": "takeout and delivery (DoorDash)",
    "street": "4014 MacArthur Blvd.",
    "city": "Oakland",
    "phone": "510-482-1255",
    "website": "Zmenu.com/1-seafood-and-chicken-restaurant-oakland-online-menu.",
    "lat": "37.790509",
    "long": "-122.19758",
    "coords": "37.790509,-122.19758"
  },
  {
    "name": "4505 Burgers & BBQ MacArthur",
    "cuisine": "American",
    "takout_option": "takeout and delivery (Grubhub, Caviar, Postmates, DoorDash, Seamless)",
    "street": "3506 MacArthur Blvd.",
    "city": "Oakland",
    "phone": "510-210-8235",
    "website": "4505burgersandbbq.com.",
    "lat": "37.793668",
    "long": "-122.200176",
    "coords": "37.793668,-122.200176"
  },
  {
    "name": "900 Grayson",
    "cuisine": "California Cuisine",
    "takout_option": "takeout and delivery",
    "street": "900 Grayson St.",
    "city": "Berkeley",
    "phone": "510-704-9900",
    "website": "900grayson.com.",
    "lat": "37.855148",
    "long": "-122.292186",
    "coords": "37.855148,-122.292186"
  },
  {
    "name": "938 Crawfish",
    "cuisine": "Cajun",
    "takout_option": "takeout and delivery",
    "street": "938 San Pablo Ave.",
    "city": "Albany",
    "phone": "510- 525-2722",
    "website": "",
    "lat": "37.888896",
    "long": "-122.298837",
    "coords": "37.888896,-122.298837"
  },
  {
    "name": "Aangan",
    "cuisine": "Indo-Nepalese Cuisine",
    "takout_option": "takeout and deliver (Uber Eats)",
    "street": "856 San Pablo Ave.",
    "city": "Albany",
    "phone": "510-524-2220",
    "website": "",
    "lat": "37.890449",
    "long": "-122.299284",
    "coords": "37.890449,-122.299284"
  },
  {
    "name": "Abigail's",
    "cuisine": "Moroccan",
    "takout_option": "takeout",
    "street": "1132 Ballena Blvd.",
    "city": "Alameda",
    "phone": "510-523-5500",
    "website": "AbigailsAlameda.com.",
    "lat": "37.766245",
    "long": "-122.287973",
    "coords": "37.766245,-122.287973"
  },
  {
    "name": "Aburaya",
    "cuisine": "Japanese",
    "takout_option": "takeout and delivery (Caviar, Door Dash, Postmates)",
    "street": "362 17th St.",
    "city": "Oakland",
    "phone": "510-502-7743",
    "website": "aburayaOakland.com.",
    "lat": "37.805955",
    "long": "-122.267561",
    "coords": "37.805955,-122.267561"
  },
  {
    "name": "A'cuppa Tea",
    "cuisine": "Coffee and Tea",
    "takout_option": "takeout and delivery (DoorDash)",
    "street": "2992 College Ave.",
    "city": "Berkeley",
    "phone": "510-848-2032",
    "website": "",
    "lat": "37.856206",
    "long": "-122.253163",
    "coords": "37.856206,-122.253163"
  },
  {
    "name": "Agave Uptown",
    "cuisine": "Mexican",
    "takout_option": "takeout and delivery (Caviar, Door Dash)",
    "street": "2135 Franklin St.",
    "city": "Oakland",
    "phone": "510-288-3668",
    "website": "AgaveUptown.com.",
    "lat": "37.81031",
    "long": "-122.26684",
    "coords": "37.81031,-122.26684"
  },
  {
    "name": "Agrodolce Osteria",
    "cuisine": "Italian",
    "takout_option": "takeout and delivery",
    "street": "1730 Shattuck Ave.",
    "city": "Berkeley",
    "phone": "510-848-8748",
    "website": "AgrodolceBerkeley.com.",
    "lat": "37.875955",
    "long": "-122.269079",
    "coords": "37.875955,-122.269079"
  },
  {
    "name": "Ajanta Restaurant",
    "cuisine": "Indian",
    "takout_option": "takeout and delivery",
    "street": "1888 Solano Ave.",
    "city": "Albany",
    "phone": "510- 526-4373",
    "website": "AjantaRestaurant.com.",
    "lat": "37.891226",
    "long": "-122.277389",
    "coords": "37.891226,-122.277389"
  },
  {
    "name": "Akat Café",
    "cuisine": "Coffee",
    "takout_option": "takeout",
    "street": "1603 Second Ave.",
    "city": "Oakland",
    "phone": "",
    "website": "Info@getcoffee.today.",
    "lat": "37.79933",
    "long": "-122.254816",
    "coords": "37.79933,-122.254816"
  },
  {
    "name": "alaMar Kitchen & Bar",
    "cuisine": "Seafood",
    "takout_option": "takeout and delivery (Caviar, Door Dash, Grubhub)",
    "street": "100 Grand Ave.",
    "city": "Oakland",
    "phone": "510-907-7555",
    "website": "alaMarOakland.com.",
    "lat": "37.811617",
    "long": "-122.265421",
    "coords": "37.811617,-122.265421"
  },
  {
    "name": "Al's Big Burger",
    "cuisine": "Burgers",
    "takout_option": "takeout and delivery",
    "street": "437 San Pablo Ave.",
    "city": "Albany",
    "phone": "(510) 527-1523",
    "website": "",
    "lat": "37.896866",
    "long": "-122.300835",
    "coords": "37.896866,-122.300835"
  },
  {
    "name": "Angel Fish Japanese Restaurant",
    "cuisine": "Japanese",
    "takout_option": "takeout and delivery to Bay Farm (DoorDash)",
    "street": "883 Island Dr.",
    "city": "Alameda",
    "phone": "510-749-0460",
    "website": "",
    "lat": "37.737531",
    "long": "-122.240346",
    "coords": "37.737531,-122.240346"
  },
  {
    "name": "Angela's Kitchen",
    "cuisine": "Mediterranean",
    "takout_option": "takeout and delivery",
    "street": "1640 Park St.",
    "city": "Alameda",
    "phone": "510-263-8788",
    "website": "AngelasAlameda.com.",
    "lat": "37.767375",
    "long": "-122.239926",
    "coords": "37.767375,-122.239926"
  },
  {
    "name": "Annapurna",
    "cuisine": "Nepalese and Indian",
    "takout_option": "takeout and delivery (Postmates, Caviar, Seamless, Grubhub, DoorDash)",
    "street": "948 Clay St.",
    "city": "Oakland",
    "phone": "510-250-9696",
    "website": "AnnapurnaOakland.com.",
    "lat": "37.802247",
    "long": "-122.275207",
    "coords": "37.802247,-122.275207"
  },
  {
    "name": "Asena",
    "cuisine": "Mediterranean",
    "takout_option": "takeout and delivery",
    "street": "2508 Santa Clara Ave.",
    "city": "Alameda",
    "phone": "510-521-4100",
    "website": "AsenaRestaurant.com.",
    "lat": "37.76412",
    "long": "-122.239767",
    "coords": "37.76412,-122.239767"
  },
  {
    "name": "Asmara",
    "cuisine": "Ethiopian",
    "takout_option": "takeout and delivery (Postmates, Grubhub, Seamless, DoorDash)",
    "street": "5020 Telegraph Ave",
    "city": "Oakland",
    "phone": "510-547-5100",
    "website": "AsmaraRestaurant.com.",
    "lat": "37.836761",
    "long": "-122.262368",
    "coords": "37.836761,-122.262368"
  },
  {
    "name": "A-Town Pizza",
    "cuisine": "Pizza",
    "takout_option": "takeout and delivery",
    "street": "2327 Blanding Ave.",
    "city": "Alameda",
    "phone": "510-522-7575",
    "website": "ATownpizza.net.",
    "lat": "37.771232",
    "long": "-122.237958",
    "coords": "37.771232,-122.237958"
  },
  {
    "name": "Aunt Mary's Cafe",
    "cuisine": "American",
    "takout_option": "takeout",
    "street": "4640 Telegraph Ave",
    "city": "Oakland",
    "phone": "510-601-9227",
    "website": "AuntMarysCafe.com.",
    "lat": "37.833928",
    "long": "-122.26312",
    "coords": "37.833928,-122.26312"
  },
  {
    "name": "Awaken Cafe & Roasting",
    "cuisine": "American",
    "takout_option": "takeout and delivery",
    "street": "1429 Broadway",
    "city": "Oakland",
    "phone": "510-863-1440",
    "website": "AwakenCafe.com.",
    "lat": "37.804675",
    "long": "-122.271208",
    "coords": "37.804675,-122.271208"
  },
  {
    "name": "Azit",
    "cuisine": "Asian fusion",
    "takout_option": "takeout and delivery (Grubhub, Seamless, Postmates, DoorDash)",
    "street": "4390 Telegraph Ave.",
    "city": "Oakland",
    "phone": "510-250-9988",
    "website": "AzitOakland.com.",
    "lat": "37.832104",
    "long": "-122.263088",
    "coords": "37.832104,-122.263088"
  },
  {
    "name": "Baby Cafe Hong Kong Bistro",
    "cuisine": "Chinese",
    "takout_option": "takeout and delivery (Grubhub, Seamless, Postmates, DoorDash)",
    "street": "358 11th St.",
    "city": "Oakland",
    "phone": "510-251-0888",
    "website": "BabyCafeRestaurants.com.",
    "lat": "37.801523",
    "long": "-122.270199",
    "coords": "37.801523,-122.270199"
  },
  {
    "name": "Banana Leaf Thai Cuisine",
    "cuisine": "Thai",
    "takout_option": "takeout and delivery (Caviar)",
    "street": "11880 San Pablo Ave.",
    "city": "El Cerrito",
    "phone": "510-680-5590",
    "website": "BananaLeafElCerrito.com.",
    "lat": "37.929312",
    "long": "-122.321012",
    "coords": "37.929312,-122.321012"
  },
  {
    "name": "Bay Fung Tong Tea House Restaurant",
    "cuisine": "Chinese",
    "takout_option": "takeout and delivery (DoorDash)",
    "street": "1916 Franklin St.",
    "city": "Oakland",
    "phone": "510-832-3298",
    "website": "BayFungTongTeaHouse.com.",
    "lat": "37.80747",
    "long": "-122.267253",
    "coords": "37.80747,-122.267253"
  },
  {
    "name": "Baygreens Salads",
    "cuisine": "American",
    "takout_option": "takeout and delivery (Caviar)",
    "street": "2225 Webster St.",
    "city": "Oakland",
    "phone": "510-419-0673",
    "website": "BayGreenSalad.com.",
    "lat": "37.811098",
    "long": "-122.265684",
    "coords": "37.811098,-122.265684"
  },
  {
    "name": "Belcampo Meat Co.",
    "cuisine": "American",
    "takout_option": "takeout and delivery (Grubhub, Seamless, Postmates, Caviar, DoorDash)",
    "street": "55 Webster St.",
    "city": "Oakland",
    "phone": "510-281-0998",
    "website": "Belcampo.com/restaurant/oakland-restaurant-butcher-shop.",
    "lat": "37.810695",
    "long": "-122.265782",
    "coords": "37.810695,-122.265782"
  },
  {
    "name": "Bellanico Restaurant and Wine Bar",
    "cuisine": "Italian",
    "takout_option": "takeout and delivery (Caviar)",
    "street": "4238 Park Blvd.",
    "city": "Oakland",
    "phone": "510-336-1180",
    "website": "Bellanico.net.",
    "lat": "37.807486",
    "long": "-122.221564",
    "coords": "37.807486,-122.221564"
  },
  {
    "name": "Belly",
    "cuisine": "Asian,  Mexican, American",
    "takout_option": "takeout and delivery (Caviar)",
    "street": "1901 San Pablo Ave.",
    "city": "Oakland",
    "phone": "510-839-0000",
    "website": "BellyUptown.com.",
    "lat": "37.809177",
    "long": "-122.273187",
    "coords": "37.809177,-122.273187"
  },
  {
    "name": "Belotti Ristorante e Bottega",
    "cuisine": "Italian",
    "takout_option": "takeout",
    "street": "5403 College Ave",
    "city": "Oakland",
    "phone": "510-788-7890",
    "website": "Belottirb.com.",
    "lat": "37.840168",
    "long": "-122.251566",
    "coords": "37.840168,-122.251566"
  },
  {
    "name": "Best Taste Restaurant",
    "cuisine": "Chinese",
    "takout_option": "takeout",
    "street": "814 Franklin St.",
    "city": "Oakland",
    "phone": "510-444-4983",
    "website": "",
    "lat": "37.799908",
    "long": "-122.272122",
    "coords": "37.799908,-122.272122"
  },
  {
    "name": "Big Dish Restaurant",
    "cuisine": "Chinese",
    "takout_option": "takeout",
    "street": "339 Ninth St.",
    "city": "Oakland",
    "phone": "510-839-3188",
    "website": "BigDish2011.blogspot.com.",
    "lat": "37.799719",
    "long": "-122.270648",
    "coords": "37.799719,-122.270648"
  },
  {
    "name": "Blue Fin Sushi Thai",
    "cuisine": "Thai",
    "takout_option": "takeout and delivery (DoorDash)",
    "street": "3211 Encinal Ave.",
    "city": "Alameda",
    "phone": "510-522-1269",
    "website": "",
    "lat": "37.756287",
    "long": "-122.233752",
    "coords": "37.756287,-122.233752"
  },
  {
    "name": "Brenda's",
    "cuisine": "American",
    "takout_option": "takeout and delivery (Caviar)",
    "street": "4045 Broadway",
    "city": "Oakland",
    "phone": "510-929-0510",
    "website": "BrendasOakland.com.",
    "lat": "37.828324",
    "long": "-122.256622",
    "coords": "37.828324,-122.256622"
  },
  {
    "name": "Brotzeit Lokal (Temporary Location)",
    "cuisine": "German",
    "takout_option": "takeout and delivery (Caviar)",
    "street": "375 40th St.",
    "city": "Oakland",
    "phone": "510-788-4698",
    "website": "BrotzeitBiergarten.com.",
    "lat": "37.827944",
    "long": "-122.259117",
    "coords": "37.827944,-122.259117"
  },
  {
    "name": "Brown Sugar Kitchen",
    "cuisine": "American",
    "takout_option": "takeout and delivery (DoorDash)",
    "street": "2295 Broadway",
    "city": "Oakland",
    "phone": "510-839-7685",
    "website": "BrownSugarKitchen.com.",
    "lat": "37.812195",
    "long": "-122.266617",
    "coords": "37.812195,-122.266617"
  },
  {
    "name": "Burma Superstar",
    "cuisine": "Burmese",
    "takout_option": "takeout and delivery (Caviar, Door Dash)",
    "street": "4721 Telegraph Ave.",
    "city": "Oakland",
    "phone": "510-652-2900",
    "website": "BurmaInc.com.",
    "lat": "37.834748",
    "long": "-122.263191",
    "coords": "37.834748,-122.263191"
  },
  {
    "name": "Burma Superstar",
    "cuisine": "Burmese",
    "takout_option": "takeout and delivery (DoorDash)",
    "street": "1345 Park St.",
    "city": "Alameda",
    "phone": "510-522-6200",
    "website": "burmasuperstar.com",
    "lat": "37.763694",
    "long": "-122.243435",
    "coords": "37.763694,-122.243435"
  },
  {
    "name": "C&M Bistro",
    "cuisine": "Chinese",
    "takout_option": "takeout and delivery (Caviar, Door Dash)",
    "street": "388 Ninth St",
    "city": "Oakland",
    "phone": "510-338-3776",
    "website": "",
    "lat": "37.800353",
    "long": "-122.271379",
    "coords": "37.800353,-122.271379"
  },
  {
    "name": "Cabalen Sweet & Savory",
    "cuisine": "Filipino",
    "takout_option": "takeout",
    "street": "3331 International Blvd.",
    "city": "Oakland",
    "phone": "510-261-7271",
    "website": "",
    "lat": "37.776697",
    "long": "-122.224187",
    "coords": "37.776697,-122.224187"
  },
  {
    "name": "Cactus Taqueria",
    "cuisine": "Mexican",
    "takout_option": "takeout and delivery (Caviar)",
    "street": "5642 College Ave",
    "city": "Oakland",
    "phone": "510-658-6180",
    "website": "CactusTaqueria.com.",
    "lat": "37.843947",
    "long": "-122.25138",
    "coords": "37.843947,-122.25138"
  },
  {
    "name": "Cafe Colucci",
    "cuisine": "Ethiopian",
    "takout_option": "takeout and delivery (DoorDash, Uber Eats)",
    "street": "6427 Telegraph Ave.",
    "city": "Oakland",
    "phone": "510-601-7999",
    "website": "CafeColucci.com.",
    "lat": "37.850732",
    "long": "-122.260793",
    "coords": "37.850732,-122.260793"
  },
  {
    "name": "Cafe Jolie",
    "cuisine": "French",
    "takout_option": "takeout and delivery",
    "street": "1500 Webster St.",
    "city": "Alameda",
    "phone": "510-523-4500",
    "website": "CafeJolies.com.",
    "lat": "37.77348",
    "long": "-122.276638",
    "coords": "37.77348,-122.276638"
  },
  {
    "name": "Cafe Raj",
    "cuisine": "Indian",
    "takout_option": "takeout and delivery (Grubhub, Seamless, DoorDash)",
    "street": "1158 Solano Ave.",
    "city": "Albany",
    "phone": "510-524-5667",
    "website": "CafeRajOnline.com.",
    "lat": "37.890206",
    "long": "-122.29682",
    "coords": "37.890206,-122.29682"
  },
  {
    "name": "Cafe Santana",
    "cuisine": "Mexican , American",
    "takout_option": "takeout",
    "street": "4100 MacArthur Blvd.",
    "city": "Oakland",
    "phone": "510-842-3027",
    "website": "CafeSantanaRoastingCompany.com.",
    "lat": "37.789655",
    "long": "-122.196537",
    "coords": "37.789655,-122.196537"
  },
  {
    "name": "Cafe Umami",
    "cuisine": "Asian",
    "takout_option": "takeout and delivery (Caviar)",
    "street": "2224 MacArthur Blvd.",
    "city": "Oakland.",
    "phone": "510-646-2394",
    "website": "CafeUmami.com.",
    "lat": "37.800371",
    "long": "-122.215987",
    "coords": "37.800371,-122.215987"
  },
  {
    "name": "Caffe Chiave",
    "cuisine": "Italian , American",
    "takout_option": "takeout and delivery (Caviar, DoorDash)",
    "street": "4045 Piedmont Ave",
    "city": "Oakland",
    "phone": "510-658-2744",
    "website": "CaffeChiave.com.",
    "lat": "37.826171",
    "long": "-122.25306",
    "coords": "37.826171,-122.25306"
  },
  {
    "name": "Calafia Taqueria",
    "cuisine": "Mexican",
    "takout_option": "takeout",
    "street": "1445 Webster St.",
    "city": "Alameda",
    "phone": "510-522-2996",
    "website": "CalafiaTaqueria.com",
    "lat": "37.772843",
    "long": "-122.276971",
    "coords": "37.772843,-122.276971"
  },
  {
    "name": "Calavera",
    "cuisine": "Mexican",
    "takout_option": "takeout and delivery (Caviar)",
    "street": "2337 Broadway",
    "city": "Oakland",
    "phone": "510-338-3273",
    "website": "CalaveraOakland.com.",
    "lat": "37.812956",
    "long": "-122.266458",
    "coords": "37.812956,-122.266458"
  },
  {
    "name": "Cato's Alehouse",
    "cuisine": "American",
    "takout_option": "takeout and delivery (Caviar, Door Dash)",
    "street": "3891 Piedmont Ave",
    "city": "Oakland",
    "phone": "510-655-3349",
    "website": "CatosAlehouse.com.",
    "lat": "37.825051",
    "long": "-122.254676",
    "coords": "37.825051,-122.254676"
  },
  {
    "name": "CCW Bar and Restaurant",
    "cuisine": "American",
    "takout_option": "takeout",
    "street": "411 26th St.",
    "city": "Oakland",
    "phone": "510-301-5142",
    "website": "CCWBarAndRestaurant.com.",
    "lat": "37.814946",
    "long": "-122.266612",
    "coords": "37.814946,-122.266612"
  },
  {
    "name": "C'era Una Volta",
    "cuisine": "Italian",
    "takout_option": "takeout and delivery (Caviar)",
    "street": "1332 Park St.",
    "city": "Alameda",
    "phone": "510-769-4828",
    "website": "CeraUnaVolta.us.",
    "lat": "37.763287",
    "long": "-122.243394",
    "coords": "37.763287,-122.243394"
  },
  {
    "name": "Champa Garden",
    "cuisine": "Asian",
    "takout_option": "takeout and delivery (Seamless Grubhub, DoorDash)",
    "street": "2102 Eighth Ave",
    "city": "Oakland",
    "phone": "510-238-8819",
    "website": "ChampaGardenRestaurant.com.",
    "lat": "37.798143",
    "long": "-122.244606",
    "coords": "37.798143,-122.244606"
  },
  {
    "name": "Chica Oakland",
    "cuisine": "Mexican-American",
    "takout_option": "takeout and delivery (call)",
    "street": "303a Oakland Ave.",
    "city": "Oakland",
    "phone": "510-735-9748",
    "website": "ChicaOakland.com.",
    "lat": "37.816688",
    "long": "-122.257355",
    "coords": "37.816688,-122.257355"
  },
  {
    "name": "China Star Express",
    "cuisine": "Chinese",
    "takout_option": "takeout",
    "street": "399 Eighth St.",
    "city": "Oakland",
    "phone": "510-836-2988",
    "website": "ChinaStarOakland.com.",
    "lat": "37.799576",
    "long": "-122.272586",
    "coords": "37.799576,-122.272586"
  },
  {
    "name": "China Village",
    "cuisine": "Chinese",
    "takout_option": "takeout",
    "street": "1335 Solano Ave",
    "city": "Albany",
    "phone": "510-525-2285",
    "website": "ChinaVillageAlbany.com.",
    "lat": "37.890881",
    "long": "-122.291154",
    "coords": "37.890881,-122.291154"
  },
  {
    "name": "Cholita Linda",
    "cuisine": "Latin American",
    "takout_option": "takeout and delivery (DoorDash, Uber Eats)",
    "street": "1337 Park St.",
    "city": "Alameda",
    "phone": "510-648-3839",
    "website": "",
    "lat": "37.763552",
    "long": "-122.243552",
    "coords": "37.763552,-122.243552"
  },
  {
    "name": "Cholita Linda",
    "cuisine": "Latin-American",
    "takout_option": "takeout and delivery (Postmates, Caviar, ChowNow)",
    "street": "4923 Telegraph Ave",
    "city": "Oakland",
    "phone": "510-594-7610",
    "website": "Cholitalinda.com.",
    "lat": "37.836103",
    "long": "-122.262821",
    "coords": "37.836103,-122.262821"
  },
  {
    "name": "Cinema Grill",
    "cuisine": "American",
    "takout_option": "takeout",
    "street": "2301 Central Ave.",
    "city": "Alameda",
    "phone": "510-769-2000",
    "website": "AlamedaCinemaGrill.com.",
    "lat": "37.764883",
    "long": "-122.244196",
    "coords": "37.764883,-122.244196"
  },
  {
    "name": "Classic Guilin Rice Noodles",
    "cuisine": "Chinese",
    "takout_option": "takeout and delivery (DoorDash)",
    "street": "261 10th St. A",
    "city": "Oakland",
    "phone": "510-250-9333",
    "website": "ClassicGuilinRiceNoodles.com.",
    "lat": "37.799679",
    "long": "-122.268793",
    "coords": "37.799679,-122.268793"
  },
  {
    "name": "Co Nam",
    "cuisine": "Vietnamese",
    "takout_option": "takeout and delivery (Caviar)",
    "street": "3936 Telegraph Ave.",
    "city": "Oakland",
    "phone": "510-891-1232",
    "website": "CoNamRestaurants.com.",
    "lat": "37.828829",
    "long": "-122.264262",
    "coords": "37.828829,-122.264262"
  },
  {
    "name": "Communité Table",
    "cuisine": "American",
    "takout_option": "takeout and delivery (Caviar, Door Dash)",
    "street": "4171 MacArthur Blvd.",
    "city": "Oakland",
    "phone": "510-482-2114",
    "website": "Communite-table.com.",
    "lat": "37.788582",
    "long": "-122.196286",
    "coords": "37.788582,-122.196286"
  },
  {
    "name": "Connie's Cantina",
    "cuisine": "Mexican",
    "takout_option": "takeout and delivery (DoorDash)",
    "street": "3340 Grand Ave",
    "city": "Oakland",
    "phone": "510-839-4986",
    "website": "conniescantina.com.",
    "lat": "37.813453",
    "long": "-122.246687",
    "coords": "37.813453,-122.246687"
  },
  {
    "name": "Copper Spoon",
    "cuisine": "American",
    "takout_option": "takeout and delivery (Caviar, Door Dash)",
    "street": "4031 Broadway",
    "city": "Oakland",
    "phone": "510-879-7061",
    "website": "CopperSpoonOakland.com.",
    "lat": "37.828152",
    "long": "-122.256737",
    "coords": "37.828152,-122.256737"
  },
  {
    "name": "Curry Up Now",
    "cuisine": "Indian",
    "takout_option": "takeout and delivery (call)",
    "street": "1745 San Pablo Ave.",
    "city": "Oakland",
    "phone": "510-858-7475",
    "website": "CurryUpNow.com.",
    "lat": "37.807452",
    "long": "-122.27255",
    "coords": "37.807452,-122.27255"
  },
  {
    "name": "Daol Tofu & Korean BBQ",
    "cuisine": "Korean",
    "takout_option": "takeout and delivery (Caviar, Grubhub, Postmates, Seamless, DoorDash)",
    "street": "4301 Telegraph Ave",
    "city": "Oakland",
    "phone": "510-601-6001",
    "website": "DaolTofu.com.",
    "lat": "37.831732",
    "long": "-122.264119",
    "coords": "37.831732,-122.264119"
  },
  {
    "name": "Daughter Thai",
    "cuisine": "Thai",
    "takout_option": "takeout and delivery (Caviar)",
    "street": "6118 Medau Pl.",
    "city": "Oakland",
    "phone": "510-823-2354",
    "website": "DaughterThai.com.",
    "lat": "37.82683",
    "long": "-122.210783",
    "coords": "37.82683,-122.210783"
  },
  {
    "name": "Degrees Plato",
    "cuisine":"Mexican",
    "takout_option": "takeout",
    "street": "4251 MacArthur Blvd.",
    "city": "Oakland",
    "phone": "510-479-3366",
    "website": "https://www.degreesplato.com/",
    "lat": "37.787583",
    "long": "-122.195386",
    "coords": "37.787583,-122.195386"
  },
  {
    "name": "Delhi Diner",
    "cuisine": "Indian",
    "takout_option": "takeout and delivery (Uber Eats)",
    "street": "1373 Solano Ave.",
    "city": "Albany",
    "phone": "510-528-5000",
    "website": "DelhiDiner.net.",
    "lat": "37.89092",
    "long": "-122.290668",
    "coords": "37.89092,-122.290668"
  },
  {
    "name": "Delicious Curry House",
    "cuisine": "Indian",
    "takout_option": "takeout and delivery (Caviar, DoorDash, GrubHub)",
    "street": "1437 Franklin St.",
    "city": "Oakland",
    "phone": "510-836-4444",
    "website": "DeliciousCurryHouse.com.",
    "lat": "37.804819",
    "long": "-122.269549",
    "coords": "37.804819,-122.269549"
  },
  {
    "name": "Donato & Co.",
    "cuisine": "Italian",
    "takout_option": "takeout",
    "street": "2635 Ashby Ave.",
    "city": "Berkeley",
    "phone": "510-838-1131",
    "website": "DonatoAndCo.com.",
    "lat": "37.857224",
    "long": "-122.253643",
    "coords": "37.857224,-122.253643"
  },
  {
    "name": "Dopo",
    "cuisine": "Italian",
    "takout_option": "takeout and delivery (Caviar)",
    "street": "4293 Piedmont Ave",
    "city": "Oakland",
    "phone": "510-652-3676",
    "website": "DopoAdesso.com.",
    "lat": "37.828887",
    "long": "-122.249555",
    "coords": "37.828887,-122.249555"
  },
  {
    "name": "dosa by DOSA",
    "cuisine": "Indian",
    "takout_option": "takeout and delivery (Uber Eats)",
    "street": "2301 Broadway",
    "city": "Oakland",
    "phone": "510-285-6823",
    "website": "dosaByDOSA.com.",
    "lat": "37.812384",
    "long": "-122.266631",
    "coords": "37.812384,-122.266631"
  },
  {
    "name": "Downtown Wine Merchants",
    "cuisine": "American",
    "takout_option": "takeout and delivery (call)",
    "street": "102 Frank H. Ogawa Plaza",
    "city": "Oakland",
    "phone": "510-250-9110",
    "website": "DowntownWineMerchants.com.",
    "lat": "37.80558",
    "long": "-122.271564",
    "coords": "37.80558,-122.271564"
  },
  {
    "name": "Dozo Ramen",
    "cuisine": "Japanese",
    "takout_option": "takeout and delivery (Seamless, GrubHub, Caviar, DoorDash)",
    "street": "3415 Grand Ave",
    "city": "Oakland",
    "phone": "510-250-9275",
    "website": "Dozo-Ramen.business.site.",
    "lat": "37.814114",
    "long": "-122.24668",
    "coords": "37.814114,-122.24668"
  },
  {
    "name": "Dragon Rouge Bistro",
    "cuisine": "Vietnamese",
    "takout_option": "take and delivery (Caviar, DoorDash, GrubHub, UberEats)",
    "street": "2337 Blanding Ave.",
    "city": "Alameda",
    "phone": "510-521-1800",
    "website": "DragonRougeByTheBay.com.",
    "lat": "37.771292",
    "long": "-122.238756",
    "coords": "37.771292,-122.238756"
  },
  {
    "name": "Duende",
    "cuisine": "Spanish",
    "takout_option": "takeout and delivery (Caviar)",
    "street": "468 19th St.",
    "city": "Oakland",
    "phone": "510-893-0174",
    "website": "DuendeOakland.com.",
    "lat": "37.808085",
    "long": "-122.269399",
    "coords": "37.808085,-122.269399"
  },
  {
    "name": "E&M Deli",
    "cuisine": "Korean",
    "takout_option": "takeout and delivery (Grubhub, Seamless)",
    "street": "6119 La Salle Ave",
    "city": "Oakland",
    "phone": "510-834-3651",
    "website": "EMDelicatering.com.",
    "lat": "37.826469",
    "long": "-122.210475",
    "coords": "37.826469,-122.210475"
  },
  {
    "name": "East End",
    "cuisine": "American and Pizza",
    "takout_option": "takeout and delivery (Caviar)",
    "street": "1650 Park St.",
    "city": "Alameda",
    "phone": "510-263-9630",
    "website": "EastEndAlameda.com.",
    "lat": "37.767823",
    "long": "-122.239552",
    "coords": "37.767823,-122.239552"
  },
  {
    "name": "East Ocean Seafood Restaurant",
    "cuisine": "Chinese",
    "takout_option": "takeout and delivery",
    "street": "1713 Webster St.",
    "city": "Alameda",
    "phone": "510-865-3381",
    "website": "EastOceanSeafoodRestaurant.com.",
    "lat": "37.776707",
    "long": "-122.276828",
    "coords": "37.776707,-122.276828"
  },
  {
    "name": "Easy Creole",
    "cuisine": "Cajun/Creole",
    "takout_option": "takeout and delivery (Caviar, Door Dash, Uber Eats)",
    "street": "1761 Alcatraz Ave.",
    "city": "Berkeley",
    "phone": "510-858-5063",
    "website": "EasyCreole.com.",
    "lat": "37.848841",
    "long": "-122.272187",
    "coords": "37.848841,-122.272187"
  },
  {
    "name": "El Agavero",
    "cuisine": "Mexican",
    "takout_option": "takeout and delivery (Grubhub, Postmates, Seamless)",
    "street": "2071 Mountain Blvd.",
    "city": "Oakland",
    "phone": "510-339-3000",
    "website": "ElaAgavero.com.",
    "lat": "37.826153",
    "long": "-122.209613",
    "coords": "37.826153,-122.209613"
  },
  {
    "name": "El Caballo Wrap",
    "cuisine": "Mexican",
    "takout_option": "takeout",
    "street": "1108 Lincoln Ave.",
    "city": "Alameda",
    "phone": "510-521-6257",
    "website": "ElCaballoWraps.com.",
    "lat": "37.774683",
    "long": "-122.26529",
    "coords": "37.774683,-122.26529"
  },
  {
    "name": "El Huarache Azteca",
    "cuisine": "Mexican",
    "takout_option": "takeout and delivery (Grubhub, Seamless, Postmates, DoorDash)",
    "street": "3842 International Blvd.",
    "city": "Oakland",
    "phone": "510-533-2395",
    "website": "ElHuaracheAztec.com.",
    "lat": "37.7748",
    "long": "-122.219166",
    "coords": "37.7748,-122.219166"
  },
  {
    "name": "El Malecón Mariscos Estilo Sinaloa",
    "cuisine": "Mexican",
    "takout_option": "takeout",
    "street": "3829 Foothill Blvd.",
    "city": "Oakland",
    "phone": "510-536-6898",
    "website": "",
    "lat": "37.778356",
    "long": "-122.216342",
    "coords": "37.778356,-122.216342"
  },
  {
    "name": "El Molcajete Cocina",
    "cuisine": "Mexican",
    "takout_option": "takeout and delivery (Grubhub, Seamless, Postmates, DoorDash, Caviar)",
    "street": "1734 Webster St.",
    "city": "Oakland",
    "phone": "510-466-6652",
    "website": "molcajetecocina.com.",
    "lat": "37.806098",
    "long": "-122.266644",
    "coords": "37.806098,-122.266644"
  },
  {
    "name": "El Rinconcito Chapin",
    "cuisine": "Salvadoran",
    "takout_option": "takeout",
    "street": "3831 International Blvd.",
    "city": "Oakland",
    "phone": "510-213-4434",
    "website": "",
    "lat": "37.774336",
    "long": "-122.219754",
    "coords": "37.774336,-122.219754"
  },
  {
    "name": "El Taco Zamorano",
    "cuisine": "Mexican",
    "takout_option": "takeout and delivery (Postmates,  Grubhub)",
    "street": "4032 Foothill Blvd.",
    "city": "Oakland",
    "phone": "510-536-3146",
    "website": "",
    "lat": "37.777344",
    "long": "-122.214572",
    "coords": "37.777344,-122.214572"
  },
  {
    "name": "Emil's Burger & Breakfast",
    "cuisine": "American",
    "takout_option": "takeout and delivery (Grubhub",
    "street": "3301 E. 12th St.",
    "city": "Oakland",
    "phone": "510-536-0888",
    "website": "EmilsBurger.com.",
    "lat": "37.77567",
    "long": "-122.224682",
    "coords": "37.77567,-122.224682"
  },
  {
    "name": "Enssaro",
    "cuisine": "Ethiopian",
    "takout_option": "takeout and delivery (Caviar, Seamless, DoorDash)",
    "street": "357-A Grand Ave.",
    "city": "Oakland",
    "phone": "510-238-9050",
    "website": "Enssaro.com.",
    "lat": "37.808828",
    "long": "-122.255804",
    "coords": "37.808828,-122.255804"
  },
  {
    "name": "Falafel Boy",
    "cuisine": "Mediterranean",
    "takout_option": "takeout and delivery (Caviar, Seamless, DoorDash ,Postmates, Grubhub)",
    "street": "1924 Franklin St.",
    "city": "Oakland",
    "phone": "510-817-4863",
    "website": "FalafelBoyOnline.com.",
    "lat": "37.807583",
    "long": "-122.267189",
    "coords": "37.807583,-122.267189"
  },
  {
    "name": "Farmhouse Kitchen Thai",
    "cuisine": "Thai",
    "takout_option": "takeout and delivery (Caviar)",
    "street": "336 Water St.",
    "city": "Oakland",
    "phone": "510-419-0541",
    "website": "FarmhouseThai.com/oakland.",
    "lat": "37.79389",
    "long": "-122.275146",
    "coords": "37.79389,-122.275146"
  },
  {
    "name": "Farmstead Cheese and Wines",
    "cuisine": "American",
    "takout_option": "takeout",
    "street": "6218 La Salle Ave.",
    "city": "Oakland",
    "phone": "510-864-9463",
    "website": "Farmstead.biz.",
    "lat": "37.826683",
    "long": "-122.20937",
    "coords": "37.826683,-122.20937"
  },
  {
    "name": "Feel Good Bakery",
    "cuisine": "Bakery",
    "takout_option": "takeout",
    "street": "1650 Park St.",
    "city": "Alameda",
    "phone": "510-864-2733",
    "website": "FeelGoodBakery.com.",
    "lat": "37.767823",
    "long": "-122.239552",
    "coords": "37.767823,-122.239552"
  },
  {
    "name": "Fenton's Creamery",
    "cuisine": "American",
    "takout_option": "takeout and delivery (Grubhub, Seamless)",
    "street": "4226 Piedmont Ave.",
    "city": "Oakland",
    "phone": "510-658-7000",
    "website": "FentonsCreamery.com.",
    "lat": "37.827876",
    "long": "-122.250014",
    "coords": "37.827876,-122.250014"
  },
  {
    "name": "Firebrand Artisan Breads",
    "cuisine": "American",
    "takout_option": "takeout and delivery (Caviar, Door Dash)",
    "street": "2343 Broadway",
    "city": "Oakland",
    "phone": "510-594-9213",
    "website": "Firebrandbread.com.",
    "lat": "37.812995",
    "long": "-122.26617",
    "coords": "37.812995,-122.26617"
  },
  {
    "name": "Fist of Flour Pizza Co.",
    "cuisine": "Italian",
    "takout_option": "takeout and delivery (Caviar)",
    "street": "4166 MacArthur Blvd.",
    "city": "Oakland",
    "phone": "510-531-6367",
    "website": "WheresTheFist.com.",
    "lat": "37.788764",
    "long": "-122.195727",
    "coords": "37.788764,-122.195727"
  },
  {
    "name": "FOB Kitchen",
    "cuisine": "Filipino",
    "takout_option": "takeout and delivery (Caviar, Door Dash)",
    "street": "5179 Telegraph Ave.",
    "city": "Oakland",
    "phone": "510-817-4169",
    "website": "FOBkitchen.com.",
    "lat": "37.83769",
    "long": "-122.262674",
    "coords": "37.83769,-122.262674"
  },
  {
    "name": "Forge Pizza",
    "cuisine": "Italian , American",
    "takout_option": "takeout and delivery (DoorDash)",
    "street": "66 Franklin St.",
    "city": "Oakland",
    "phone": "510-268-3200",
    "website": "TheForgePizza.com.",
    "lat": "37.794543",
    "long": "-122.275699",
    "coords": "37.794543,-122.275699"
  },
  {
    "name": "Fountain Garden and Seafood",
    "cuisine": "Chinese",
    "takout_option": "takeout",
    "street": "3836 MacArthur Blvd.",
    "city": "Oakland",
    "phone": "510-531-2658",
    "website": "FountainGardenSeafood.com.",
    "lat": "37.791428",
    "long": "-122.198131",
    "coords": "37.791428,-122.198131"
  },
  {
    "name": "Full House Café",
    "cuisine": "Chinese",
    "takout_option": "takeout",
    "street": "326 Seventh St.",
    "city": "Oakland",
    "phone": "510-891-8823",
    "website": "FullHouseCafeCA.com.",
    "lat": "37.798497",
    "long": "-122.271139",
    "coords": "37.798497,-122.271139"
  },
  {
    "name": "Funky Elephant",
    "cuisine": "Thai",
    "takout_option": "takeout and delivery",
    "street": "1313 Ninth St.",
    "city": "Berkeley",
    "phone": "510-356-4855",
    "website": "FunkyElephantThai.com.",
    "lat": "37.87978",
    "long": "-122.297939",
    "coords": "37.87978,-122.297939"
  },
  {
    "name": "Gaumenkitzel",
    "cuisine": "German",
    "takout_option": "takeout and curbside delivery",
    "street": "2121 San Pablo Ave.",
    "city": "Berkeley",
    "phone": "510-647-5016",
    "website": "Gaumenkitzel.net.",
    "lat": "37.867479",
    "long": "-122.291225",
    "coords": "37.867479,-122.291225"
  },
  {
    "name": "Geta Japanese Restaurant",
    "cuisine": "Japanese",
    "takout_option": "takeout and delivery (Grubhub)",
    "street": "165 41st St.",
    "city": "Oakland",
    "phone": "510-653-4643",
    "website": "GetaPiedmont.com.",
    "lat": "37.826581",
    "long": "-122.25294",
    "coords": "37.826581,-122.25294"
  },
  {
    "name": "Gim's Chinese Kitchen",
    "cuisine": "Chinese",
    "takout_option": "takeout and delivery (Caviar)",
    "street": "2322 Lincoln Ave.",
    "city": "Alameda",
    "phone": "510-523-2400",
    "website": "GimsChineseKitchen.com.",
    "lat": "37.766698",
    "long": "-122.241619",
    "coords": "37.766698,-122.241619"
  },
  {
    "name": "Gioia Pizzeria",
    "cuisine": "Pizza",
    "takout_option": "takeout and delivery (DoorDash, Uber Eats)",
    "street": "1586 Hopkins St.",
    "city": "Berkeley",
    "phone": "(510) 528-4692",
    "website": "GioiaPizzeria.com.",
    "lat": "37.88166",
    "long": "-122.281461",
    "coords": "37.88166,-122.281461"
  },
  {
    "name": "Golden Squirrel",
    "cuisine": "American",
    "takout_option": "takeout and delivery (Caviar, Grubhub,  Seamless)",
    "street": "5940 College Ave",
    "city": "Oakland",
    "phone": "510-735-9220",
    "website": "GoldenSquirrelPub.com.",
    "lat": "37.847981",
    "long": "-122.251837",
    "coords": "37.847981,-122.251837"
  },
  {
    "name": "Good to Eat Dumplings",
    "cuisine": "Taiwanese",
    "takout_option": "takeout",
    "street": "292 Fourth St.",
    "city": "Oakland",
    "phone": "510-698-2244",
    "website": "GoodToEatDumplings.com.",
    "lat": "37.796123",
    "long": "-122.271424",
    "coords": "37.796123,-122.271424"
  },
  {
    "name": "Gordo Taqueria",
    "cuisine": "Mexican",
    "takout_option": "takeout and delivery (Caviar, Door Dash)",
    "street": "1423 Solano Ave",
    "city": "Albany",
    "phone": "510-528-8226",
    "website": "GordoTaqueria.co.",
    "lat": "37.890977",
    "long": "-122.289491",
    "coords": "37.890977,-122.289491"
  },
  {
    "name": "Graffiti Pizza",
    "cuisine": "Italian",
    "takout_option": "takeout and delivery (DoorDash, Uber Eats)",
    "street": "719 Washington St.",
    "city": "Oakland",
    "phone": "510-250-9303",
    "website": "GraffitiPizzafl.com.",
    "lat": "37.800429",
    "long": "-122.275496",
    "coords": "37.800429,-122.275496"
  },
  {
    "name": "Grand Ave Thai Cuisine",
    "cuisine": "Thai",
    "takout_option": "takeout and delivery (Caviar)",
    "street": "384 Grand Ave.",
    "city": "Oakland",
    "phone": "510-444-1507",
    "website": "GrandAveThai.net.",
    "lat": "37.809018",
    "long": "-122.254538",
    "coords": "37.809018,-122.254538"
  },
  {
    "name": "Grandeur Halal & Vegan Burger",
    "cuisine": "Halal",
    "takout_option": "takeout and delivery (Seamless, Grubhub, DoorDash)",
    "street": "366B Grand Ave.",
    "city": "Oakland",
    "phone": "510-879-7568",
    "website": "GrandeurOakland.com.",
    "lat": "37.809209",
    "long": "-122.255221",
    "coords": "37.809209,-122.255221"
  },
  {
    "name": "Gregoire",
    "cuisine": "French",
    "takout_option": "takeout and delivery (Caviar)",
    "street": "2109 Cedar St.",
    "city": "Berkeley",
    "phone": "510-883-1893",
    "website": "GregoiRrerestaurant.com.",
    "lat": "37.878695",
    "long": "-122.268543",
    "coords": "37.878695,-122.268543"
  },
  {
    "name": "Guacamole 61",
    "cuisine": "",
    "takout_option": "takeout and delivery.",
    "street": "1511 Shattuck",
    "city": "Berkeley",
    "phone": "",
    "website": "",
    "lat": "37.879812",
    "long": "-122.268896",
    "coords": "37.879812,-122.268896"
  },
  {
    "name": "Gum Kuo",
    "cuisine": "Chinese",
    "takout_option": "takeout and delivery (Postmates,  Grubhub)",
    "street": "388 Ninth St.",
    "city": "Oakland",
    "phone": "510-268-1288",
    "website": "GumKuoRestaurant.com.",
    "lat": "37.800353",
    "long": "-122.271379",
    "coords": "37.800353,-122.271379"
  },
  {
    "name": "Halal Guys",
    "cuisine": "Halal",
    "takout_option": "takeout and delivery (Grubhub, Caviar, Postmates, Seamless, DoorDash)",
    "street": "2214 Broadway",
    "city": "Oakland",
    "phone": "510-808-5062",
    "website": "TheHalalGuys.com.",
    "lat": "37.811088",
    "long": "-122.266553",
    "coords": "37.811088,-122.266553"
  },
  {
    "name": "Hang Ten Boiler",
    "cuisine": "Cajun/Creole",
    "takout_option": "takeout",
    "street": "2315 Santa Clara Ave.",
    "city": "Alameda",
    "phone": "510-263-8688",
    "website": "HangTenBoiler.com.",
    "lat": "37.765802",
    "long": "-122.242601",
    "coords": "37.765802,-122.242601"
  },
  {
    "name": "Happy Garden",
    "cuisine": "Chinese",
    "takout_option": "takeout and delivery (DoorDash)",
    "street": "4112 MacArthur Blvd.",
    "city": "Oakland",
    "phone": "510-482-3988",
    "website": "HappyGardenOakland.com.",
    "lat": "37.789547",
    "long": "-122.196706",
    "coords": "37.789547,-122.196706"
  },
  {
    "name": "Hawking Bird",
    "cuisine": "Thai",
    "takout_option": "takeout and delivery (Caviar, Door Dash)",
    "street": "4901 Telegraph Ave",
    "city": "Oakland",
    "phone": "510-593-2376",
    "website": "HawkingBird.com.",
    "lat": "37.835925",
    "long": "-122.262934",
    "coords": "37.835925,-122.262934"
  },
  {
    "name": "High Peaks Kitchen",
    "cuisine": "Indian",
    "takout_option": "takeout and delivery (DoorDash, EatStreet, Postmates)",
    "street": "5299 A College Ave.",
    "city": "Oakland",
    "phone": "510-450-0644",
    "website": "HiPeaks.com.",
    "lat": "37.838181",
    "long": "-122.251688",
    "coords": "37.838181,-122.251688"
  },
  {
    "name": "Himalayan Curry House",
    "cuisine": "Nepalese",
    "takout_option": "takeout and delivery (Seamless, Postmates, Grubhub, Caviar, DoorDash)",
    "street": "6112 La Salle Ave.",
    "city": "Oakland",
    "phone": "510-338-0553",
    "website": "HimalayanCurryHouseOakland.com.",
    "lat": "37.826132",
    "long": "-122.209824",
    "coords": "37.826132,-122.209824"
  },
  {
    "name": "Holy Land Restaurant",
    "cuisine": "Mediterranean",
    "takout_option": "takeout and delivery (Postmates, DoorDash, Seamless, Grubhub, Caviar)",
    "street": "677 Rand Ave.",
    "city": "Oakland",
    "phone": "510-272-0535",
    "website": "OrderHolyLandRestaurant.com.",
    "lat": "37.810368",
    "long": "-122.2464",
    "coords": "37.810368,-122.2464"
  },
  {
    "name": "Home of Chicken and Waffles",
    "cuisine": "American",
    "takout_option": "takeout and delivery (Postmates, DoorDash)",
    "street": "444 Embarcadero West",
    "city": "Oakland",
    "phone": "510-836-4446",
    "website": "HomeOfChickenAndWaffles.com.",
    "lat": "37.795508",
    "long": "-122.276932",
    "coords": "37.795508,-122.276932"
  },
  {
    "name": "Homeroom to Go",
    "cuisine": "American",
    "takout_option": "takeout and delivery (Grubhub, Caviar, DoorDash)",
    "street": "4007 Webster St.",
    "city": "Oakland",
    "phone": "510-597-0400",
    "website": "Homeroom510.com.",
    "lat": "37.828869",
    "long": "-122.260939",
    "coords": "37.828869,-122.260939"
  },
  {
    "name": "Honor Kitchen & Cocktails",
    "cuisine": "American",
    "takout_option": "takeout and delivery (DoorDash, Uber eats)",
    "street": "1411 Powell St.",
    "city": "Emeryville",
    "phone": "510-653-8667",
    "website": "HonorEmeryville.com.",
    "lat": "37.839232",
    "long": "-122.289757",
    "coords": "37.839232,-122.289757"
  },
  {
    "name": "Hopscotch",
    "cuisine": "American",
    "takout_option": "takeout and delivery (Caviar)",
    "street": "1915 San Pablo Ave",
    "city": "Oakland",
    "phone": "510-788-6217",
    "website": "HopscotchOakland.com.",
    "lat": "37.809177",
    "long": "-122.273187",
    "coords": "37.809177,-122.273187"
  },
  {
    "name": "Hoshi Sushi",
    "cuisine": "Japanese",
    "takout_option": "takeout",
    "street": "10561 San Pablo Ave",
    "city": "El Cerrito",
    "phone": "510-529-4585",
    "website": "HoshiSushiElCerrito.com.",
    "lat": "37.910776",
    "long": "-122.308575",
    "coords": "37.910776,-122.308575"
  },
  {
    "name": "Huangcheng Noodle House",
    "cuisine": "Chinese",
    "takout_option": "takeout and delivery (Caviar, Grubhub,  Seamless)",
    "street": "734 Webster St.",
    "city": "Oakland",
    "phone": "702-481-3124",
    "website": "HuangchengNoodle.com.",
    "lat": "37.798745",
    "long": "-122.271558",
    "coords": "37.798745,-122.271558"
  },
  {
    "name": "Hunan Yuan",
    "cuisine": "Chinese",
    "takout_option": "takeout and delivery (DoorDash)",
    "street": "4100 Redwood Rd",
    "city": "Oakland",
    "phone": "510-531-1415",
    "website": "HunanYuan.com.",
    "lat": "37.797568",
    "long": "-122.181943",
    "coords": "37.797568,-122.181943"
  },
  {
    "name": "IB's Berkeley",
    "cuisine": "Sandwiches",
    "takout_option": "takeout and delivery (Uber Eats)",
    "street": "2513 Durant Ave.",
    "city": "Berkeley",
    "phone": "510-841-1681",
    "website": "",
    "lat": "37.868041",
    "long": "-122.25849",
    "coords": "37.868041,-122.25849"
  },
  {
    "name": "Ikaros Greek Restaurant",
    "cuisine": "Greek",
    "takout_option": "takeout and delivery (Uber Eats)",
    "street": "3268 Grand Ave.",
    "city": "Oakland",
    "phone": "510-899-4400",
    "website": "IkarosGr.com.",
    "lat": "37.812471",
    "long": "-122.246929",
    "coords": "37.812471,-122.246929"
  },
  {
    "name": "Imperial Soup",
    "cuisine": "Chinese",
    "takout_option": "takeout",
    "street": "723 Webster St.",
    "city": "Oakland",
    "phone": "510-893-2288",
    "website": "",
    "lat": "37.798792",
    "long": "-122.271869",
    "coords": "37.798792,-122.271869"
  },
  {
    "name": "Imperial Tea Court",
    "cuisine": "Dim Sum",
    "takout_option": "takeout and delivery (DoorDash)",
    "street": "1511 Shattuck Ave.",
    "city": "Berkeley",
    "phone": "510-540-8888",
    "website": "ImperialTea.com.",
    "lat": "37.879812",
    "long": "-122.268896",
    "coords": "37.879812,-122.268896"
  },
  {
    "name": "India Palace",
    "cuisine": "Indian",
    "takout_option": "takeout and delivery",
    "street": "737 Buena Vista Ave.",
    "city": "Alameda",
    "phone": "510-814-8778",
    "website": "IndiaPalaceAlameda.us.",
    "lat": "37.777339",
    "long": "-122.275045",
    "coords": "37.777339,-122.275045"
  },
  {
    "name": "Island Taqueria",
    "cuisine": "Mexican",
    "takout_option": "takeout",
    "street": "1513 Park St.",
    "city": "Alameda",
    "phone": "510-749-7018",
    "website": "",
    "lat": "37.765814",
    "long": "-122.241661",
    "coords": "37.765814,-122.241661"
  },
  {
    "name": "Italian Colors",
    "cuisine": "Italian",
    "takout_option": "takeout and delivery (call)",
    "street": "2220 Mountain Blvd.",
    "city": "Oakland",
    "phone": "510-482-8094",
    "website": "ItalianColorsRestaurant.com.",
    "lat": "37.823452",
    "long": "-122.207275",
    "coords": "37.823452,-122.207275"
  },
  {
    "name": "Itani Ramen",
    "cuisine": "Japanese",
    "takout_option": "takeout and delivery (Caviar, Door Dash)",
    "street": "1736 Telegraph Ave.",
    "city": "Oakland",
    "phone": "510-788-7489",
    "website": "ItaniRamen.com.",
    "lat": "37.807082",
    "long": "-122.270115",
    "coords": "37.807082,-122.270115"
  },
  {
    "name": "Jim's Coffee Shop",
    "cuisine": "Diner",
    "takout_option": "takeout or deliver (DoorDash)",
    "street": "2333 Lincoln Ave.",
    "city": "Alameda",
    "phone": "510-523-5368",
    "website": "JimsCoffeeShop.com.",
    "lat": "37.766863",
    "long": "-122.241197",
    "coords": "37.766863,-122.241197"
  },
  {
    "name": "Jonathans Sandwich Shop",
    "cuisine": "Sandwiches",
    "takout_option": "takeout and delivery",
    "street": "2316 Santa Clara Ave.",
    "city": "Alameda",
    "phone": "510-522-8040",
    "website": "JohnathansSandwichAlameda.com.",
    "lat": "37.76551",
    "long": "-122.242658",
    "coords": "37.76551,-122.242658"
  },
  {
    "name": "JotMahal Palace of Indian Cuisine",
    "cuisine": "Indian",
    "takout_option": "takeout and delivery (Uber Eats)",
    "street": "1543 Shattuck Ave.",
    "city": "Berkeley",
    "phone": "510 848-9664",
    "website": "JotMahalBerkeley.site.",
    "lat": "37.878719",
    "long": "-122.268807",
    "coords": "37.878719,-122.268807"
  },
  {
    "name": "Julie's",
    "cuisine": "Coffee and Sandwich",
    "takout_option": "takeout and delivery (DoorDash)",
    "street": "1223 Park St",
    "city": "Alameda",
    "phone": "510-865-2385",
    "website": "JuliesTea.com.",
    "lat": "37.761554",
    "long": "-122.245238",
    "coords": "37.761554,-122.245238"
  },
  {
    "name": "Kakui Sushi",
    "cuisine": "Japanese",
    "takout_option": "takeout and delivery (Caviar)",
    "street": "2060 Mountain Blvd.",
    "city": "Oakland",
    "phone": "510-338-1188",
    "website": "KakuiSushi.com.",
    "lat": "37.826517",
    "long": "-122.2096",
    "coords": "37.826517,-122.2096"
  },
  {
    "name": "Kathmandu Restaurant",
    "cuisine": "Nepalese",
    "takout_option": "takeout and delivery (DoorDash, Seamless, Grubhub, Postmates, UberEats)",
    "street": "1410 Solano Ave.",
    "city": "Albany",
    "phone": "510-526-3222",
    "website": "Kathmandu-Restaurant.com.",
    "lat": "37.89064",
    "long": "-122.289076",
    "coords": "37.89064,-122.289076"
  },
  {
    "name": "Khana Peena",
    "cuisine": "Indian",
    "takout_option": "takeout and delivery (Grubhub, Seamless)",
    "street": "5316 College Ave.",
    "city": "Oakland",
    "phone": "510-658-2300",
    "website": "OrderKhanaPeena.com.",
    "lat": "37.838432",
    "long": "-122.251142",
    "coords": "37.838432,-122.251142"
  },
  {
    "name": "King-Kong Restaurant",
    "cuisine": "Chinese",
    "takout_option": "takeout and delivery (DoorDash)",
    "street": "3421 MacArthur Blvd.",
    "city": "Oakland",
    "phone": "510-530-6288",
    "website": "KingKongChineseCa.com.",
    "lat": "37.793949",
    "long": "-122.201138",
    "coords": "37.793949,-122.201138"
  },
  {
    "name": "Kingston 11",
    "cuisine": "Jamaican",
    "takout_option": "takeout",
    "street": "2270 Telegraph Ave.",
    "city": "Oakland",
    "phone": "510-465-2558",
    "website": "Kingston11eats.com.",
    "lat": "37.812284",
    "long": "-122.268599",
    "coords": "37.812284,-122.268599"
  },
  {
    "name": "Kinja",
    "cuisine": "Japanese",
    "takout_option": "takeout and delivery (Caviar)",
    "street": "357 Grand Ave.",
    "city": "Oakland",
    "phone": "510-452-2443",
    "website": "KinjaOakland.com.",
    "lat": "37.808828",
    "long": "-122.255804",
    "coords": "37.808828,-122.255804"
  },
  {
    "name": "Kobe Ya",
    "cuisine": "Japanese",
    "takout_option": "takeout or delivery (DoorDash)",
    "street": "2300 Encinal Ave.",
    "city": "Alameda",
    "phone": "510-337-1966",
    "website": "",
    "lat": "37.762846",
    "long": "-122.245262",
    "coords": "37.762846,-122.245262"
  },
  {
    "name": "La Casita",
    "cuisine": "Mexican",
    "takout_option": "takeout",
    "street": "3659 Foothill Blvd.",
    "city": "Oakland",
    "phone": "510-261-4260",
    "website": "",
    "lat": "37.779819",
    "long": "-122.217807",
    "coords": "37.779819,-122.217807"
  },
  {
    "name": "La Marcha Tapas Bar",
    "cuisine": "Spanish",
    "takout_option": "takeout and delivery (DoorDash, Uber Eats)",
    "street": "2026 San Pablo Ave.",
    "city": "Berkeley",
    "phone": "510-647-9525",
    "website": "LaMarchaBerkeley.com.",
    "lat": "37.868585",
    "long": "-122.292377",
    "coords": "37.868585,-122.292377"
  },
  {
    "name": "La Mediterranee",
    "cuisine": "Mediterranean, Middle East",
    "takout_option": "takeout and delivery (Caviar,  DoorDash)",
    "street": "2936 College Ave.",
    "city": "Berkeley",
    "phone": "510-540-7773",
    "website": "CafeLaMed.com.",
    "lat": "37.85758",
    "long": "-122.253378",
    "coords": "37.85758,-122.253378"
  },
  {
    "name": "La Penca Azul",
    "cuisine": "Mexican",
    "takout_option": "takeout or delivery",
    "street": "1440 Park St.",
    "city": "Alameda",
    "phone": "510-769-9110",
    "website": "LaPencaAzul.com.",
    "lat": "37.765138",
    "long": "-122.241846",
    "coords": "37.765138,-122.241846"
  },
  {
    "name": "La Santa Torta",
    "cuisine": "Mexican",
    "takout_option": "takeout",
    "street": "333 Broadway",
    "city": "Oakland",
    "phone": "925-207-9275",
    "website": "La-Santa-Torta.com.",
    "lat": "37.797347",
    "long": "-122.275948",
    "coords": "37.797347,-122.275948"
  },
  {
    "name": "La Torta Loca",
    "cuisine": "Mexican",
    "takout_option": "takeout",
    "street": "3419 International Blvd.",
    "city": "Oakland",
    "phone": "510-532-7105",
    "website": "",
    "lat": "37.776057",
    "long": "-122.22342",
    "coords": "37.776057,-122.22342"
  },
  {
    "name": "Lao-Thai Kitchen",
    "cuisine": "Laotian",
    "takout_option": "takeout and delivery (DoorDash).",
    "street": "1406 Solano Ave",
    "city": "Albany",
    "phone": "510-558-8915",
    "website": "LaoThaiKitchen.com.",
    "lat": "37.890617",
    "long": "-122.289202",
    "coords": "37.890617,-122.289202"
  },
  {
    "name": "Larb Thai Food & Tapas",
    "cuisine": "Thai",
    "takout_option": "takeout",
    "street": "10166 San Pablo Ave",
    "city": "El Cerrito",
    "phone": "510-524-8988",
    "website": "LarbThaiTapas.com.",
    "lat": "37.903508",
    "long": "-122.303478",
    "coords": "37.903508,-122.303478"
  },
  {
    "name": "Lena's Soul Food",
    "cuisine": "American",
    "takout_option": "takeout and delivery (Grubhub, Seamless, Postmates, DoorDash)",
    "street": "6403 Foothill Blvd.",
    "city": "Oakland",
    "phone": "510-957-5663",
    "website": "LenasSoulFoodCafe.com.",
    "lat": "37.770487",
    "long": "-122.184521",
    "coords": "37.770487,-122.184521"
  },
  {
    "name": "Lin Jia Asian Kitchen",
    "cuisine": "Chinese",
    "takout_option": "takeout",
    "street": "3437 Lakeshore Ave",
    "city": "Oakland",
    "phone": "510-835-8322",
    "website": "LinJiaKitchen.com.",
    "lat": "37.811599",
    "long": "-122.242648",
    "coords": "37.811599,-122.242648"
  },
  {
    "name": "Little House Café",
    "cuisine": "American",
    "takout_option": "takeout and delivery",
    "street": "2300 Blanding Ave.",
    "city": "Alameda",
    "phone": "510-864-4044",
    "website": "LittleHouseCafe.com.",
    "lat": "37.771341",
    "long": "-122.239525",
    "coords": "37.771341,-122.239525"
  },
  {
    "name": "Lo Coco's",
    "cuisine": "Italian",
    "takout_option": "takeout and delivery (Caviar)",
    "street": "4270 Piedmont Ave.",
    "city": "Oakland",
    "phone": "510-652-6222",
    "website": "LoCoCosPiedmont.com.",
    "lat": "37.82833",
    "long": "-122.249483",
    "coords": "37.82833,-122.249483"
  },
  {
    "name": "Lo Cocos Salvadorian Restaurant",
    "cuisine": "Salvadoran",
    "takout_option": "takeout",
    "street": "1449 Fruitvale Ave.",
    "city": "Oakland",
    "phone": "510-536-3079",
    "website": "",
    "lat": "37.778395",
    "long": "-122.225768",
    "coords": "37.778395,-122.225768"
  },
  {
    "name": "Lola's Chicken Shack",
    "cuisine": "Sandwiches",
    "takout_option": "takeout and delivery (Caviar)",
    "street": "1417 Park St.",
    "city": "Alameda",
    "phone": "510-521-4488",
    "website": "LolasChickenShack.com.",
    "lat": "37.764807",
    "long": "-122.242538",
    "coords": "37.764807,-122.242538"
  },
  {
    "name": "Lucky Three Seven",
    "cuisine": "Filipino",
    "takout_option": "takeout",
    "street": "2868 Fruitvale Ave.",
    "city": "Oakland",
    "phone": "510-866-2023",
    "website": "",
    "lat": "37.79306",
    "long": "-122.218877",
    "coords": "37.79306,-122.218877"
  },
  {
    "name": "Luka's Taproom",
    "cuisine": "American",
    "takout_option": "takeout and delivery (Caviar, DoorDash, GrubHub)",
    "street": "2221 Broadway",
    "city": "Oakland",
    "phone": "510-451-4677",
    "website": "LukasOakland.com.",
    "lat": "37.811513",
    "long": "-122.267042",
    "coords": "37.811513,-122.267042"
  },
  {
    "name": "Mägo",
    "cuisine": "American",
    "takout_option": "takeout and delivery (Caviar, Seamless, Grubhub)",
    "street": "3762 Piedmont Ave.",
    "city": "Oakland",
    "phone": "510-344-7214",
    "website": "MagoRestaurant.com.",
    "lat": "37.823599",
    "long": "-122.256041",
    "coords": "37.823599,-122.256041"
  },
  {
    "name": "Magpie Taproom",
    "cuisine": "Italian , American",
    "takout_option": "takeout and delivery (Caviar, DoorDash)",
    "street": "375 40th St.",
    "city": "Oakland",
    "phone": "510-788-4698",
    "website": "MagpieOakland.com.",
    "lat": "37.827944",
    "long": "-122.259117",
    "coords": "37.827944,-122.259117"
  },
  {
    "name": "Mama Papa Lithuania",
    "cuisine": "Lithuania",
    "takout_option": "takeout and delivery (Caviar, DoorDash, UberEats)",
    "street": "1241 Park St.",
    "city": "Alameda",
    "phone": "510-522-4100",
    "website": "MamaPapaLithuania.com.",
    "lat": "37.762053",
    "long": "-122.244841",
    "coords": "37.762053,-122.244841"
  },
  {
    "name": "Mama's Royal Cafe",
    "cuisine": "American",
    "takout_option": "takeout and delivery (DoorDash)",
    "street": "4012 Broadway",
    "city": "Oakland",
    "phone": "510-547-7600",
    "website": "MamasRoyal.cafe.",
    "lat": "37.827706",
    "long": "-122.256147",
    "coords": "37.827706,-122.256147"
  },
  {
    "name": "Marica",
    "cuisine": "Seafood",
    "takout_option": "takeout and delivery (Caviar, DoorDash, GrubHub, Seamless)",
    "street": "5301 College Ave.",
    "city": "Oakland",
    "phone": "510-985-8388",
    "website": "MaricaOakland.com.",
    "lat": "37.838112",
    "long": "-122.251383",
    "coords": "37.838112,-122.251383"
  },
  {
    "name": "Mariscos La Costa",
    "cuisine": "Seafood",
    "takout_option": "takeout",
    "street": "3625 International Blvd.",
    "city": "Oakland",
    "phone": "510-533-9566",
    "website": "",
    "lat": "37.775074",
    "long": "-122.221293",
    "coords": "37.775074,-122.221293"
  },
  {
    "name": "Marley G's",
    "cuisine": "Pizza",
    "takout_option": "takeout and delivery",
    "street": "1330 Park St.",
    "city": "Alameda",
    "phone": "510-227-5521",
    "website": "",
    "lat": "37.763245",
    "long": "-122.243432",
    "coords": "37.763245,-122.243432"
  },
  {
    "name": "Marti's Place",
    "cuisine": "Diner",
    "takout_option": "takeout",
    "street": "1905 Encinal Ave.",
    "city": "Alameda",
    "phone": "510-521-4600",
    "website": "",
    "lat": "37.767128",
    "long": "-122.254424",
    "coords": "37.767128,-122.254424"
  },
  {
    "name": "Marufuku Ramen",
    "cuisine": "Japanese",
    "takout_option": "takeout and delivery (Uber Eats, Grubhub, Seamless, DoorDash)",
    "street": "4828 Telegraph Ave.",
    "city": "Oakland",
    "phone": "510-823-2416",
    "website": "MarufukuRamen.com.",
    "lat": "37.835065",
    "long": "-122.262793",
    "coords": "37.835065,-122.262793"
  },
  {
    "name": "Marzano",
    "cuisine": "Italian",
    "takout_option": "takeout and delivery (Caviar)",
    "street": "4214 Park Blvd.",
    "city": "Oakland",
    "phone": "510-479-1448",
    "website": "MarzanoRestaurant.com.",
    "lat": "37.80729",
    "long": "-122.221964",
    "coords": "37.80729,-122.221964"
  },
  {
    "name": "McGee's",
    "cuisine": "Pub, Sandwiches",
    "takout_option": "takeout",
    "street": "1645 Park St.",
    "city": "Alameda",
    "phone": "510-522-3470",
    "website": "McGeesBarAndGrill.com.",
    "lat": "37.767809",
    "long": "-122.240006",
    "coords": "37.767809,-122.240006"
  },
  {
    "name": "Mi Grullense Restaurant & Tequila Bar",
    "cuisine": "Mexican",
    "takout_option": "takeout and delivery (DoorDash)",
    "street": "1457 Fruitvale Ave.",
    "city": "Oakland",
    "phone": "510-261-3325",
    "website": "",
    "lat": "37.778491",
    "long": "-122.22572",
    "coords": "37.778491,-122.22572"
  },
  {
    "name": "Minnie Bell's Soul Movement",
    "cuisine": "Soul Food",
    "takout_option": "takeout and delivery (DoorDash)",
    "street": "5959 Shellmound St.",
    "city": "Emeryville",
    "phone": "",
    "website": "EmeryvilleMinnieBellsSoul.com.",
    "lat": "37.841483",
    "long": "-122.293687",
    "coords": "37.841483,-122.293687"
  },
  {
    "name": "Mint Leaf Vietnamese Restaurant",
    "cuisine": "Vietnamese",
    "takout_option": "takeout and delivery (DoorDash)",
    "street": "831 Marina Village Parkway",
    "city": "Alameda",
    "phone": "510-522-2758",
    "website": "MintLeafVR.com.",
    "lat": "37.787899",
    "long": "-122.276677",
    "coords": "37.787899,-122.276677"
  },
  {
    "name": "Miss Ollie's",
    "cuisine": "Caribbean",
    "takout_option": "takeout",
    "street": "901 Washington St.",
    "city": "Oakland",
    "phone": "510-285-6188",
    "website": "RealMissOlliesOakland.com.",
    "lat": "37.801628",
    "long": "-122.274704",
    "coords": "37.801628,-122.274704"
  },
  {
    "name": "Mistura Peruvian Rotisserie",
    "cuisine": "Peruvian",
    "takout_option": "takeout and delivery (DoorDash, Caviar)",
    "street": "3858 Piedmont Ave.",
    "city": "Oakland",
    "phone": "510-652-1439",
    "website": "MisturaPiedmont.com.",
    "lat": "37.82443",
    "long": "-122.254899",
    "coords": "37.82443,-122.254899"
  },
  {
    "name": "Miyozen",
    "cuisine": "Japanese",
    "takout_option": "takeout and delivery (Caviar, Uber Eats)",
    "street": "1147 40th St.",
    "city": "Emeryville",
    "phone": "510-923-0311",
    "website": "gotsushiandsake.com.",
    "lat": "37.830998",
    "long": "-122.279406",
    "coords": "37.830998,-122.279406"
  },
  {
    "name": "Monkey King at the Brewery",
    "cuisine": "Asian, Chicken Wings",
    "takout_option": "takeout and delivery (DoorDash)",
    "street": "1708 Park St.",
    "city": "Alameda",
    "phone": "510-522-8886",
    "website": "",
    "lat": "37.768392",
    "long": "-122.239082",
    "coords": "37.768392,-122.239082"
  },
  {
    "name": "Monkey King Pub & Grub",
    "cuisine": "Asian",
    "takout_option": "takeout and delivery (DoorDash)",
    "street": "1315 Park St.",
    "city": "Alameda",
    "phone": "510-522-8882",
    "website": "MonkeyKingToGgo.com.",
    "lat": "37.762974",
    "long": "-122.244071",
    "coords": "37.762974,-122.244071"
  },
  {
    "name": "Neecha Thai",
    "cuisine": "Thai",
    "takout_option": "takeout and delivery (DoorDash, Caviar)",
    "street": "3236 Grand Ave",
    "city": "Oakland",
    "phone": "510-451-9419",
    "website": "NeechaThai.com.",
    "lat": "37.81198",
    "long": "-122.247238",
    "coords": "37.81198,-122.247238"
  },
  {
    "name": "Neptune's",
    "cuisine": "American",
    "takout_option": "takeout",
    "street": "630 Central Ave.",
    "city": "Alameda",
    "phone": "510-263-9438",
    "website": "NeptunesAlameda.com.",
    "lat": "37.771351",
    "long": "-122.278086",
    "coords": "37.771351,-122.278086"
  },
  {
    "name": "New Gold Medal",
    "cuisine": "Chinese",
    "takout_option": "takeout and delivery (DoorDash)",
    "street": "389 Eighth St.",
    "city": "Oakland",
    "phone": "510-465-1940",
    "website": "",
    "lat": "37.799482",
    "long": "-122.272246",
    "coords": "37.799482,-122.272246"
  },
  {
    "name": "Nibs",
    "cuisine": "American",
    "takout_option": "takeout",
    "street": "3112 Market St.",
    "city": "Oakland",
    "phone": "510-250-9272",
    "website": "",
    "lat": "37.821698",
    "long": "-122.275963",
    "coords": "37.821698,-122.275963"
  },
  {
    "name": "Nido's Backyard",
    "cuisine": "Mexican",
    "takout_option": "takeout and delivery (Seamless, GrubHub, Caviar)",
    "street": "104 Oak St.",
    "city": "Oakland",
    "phone": "510-500-9757",
    "website": "BackyardOakland.com.",
    "lat": "37.79212",
    "long": "-122.268199",
    "coords": "37.79212,-122.268199"
  },
  {
    "name": "Ninna Restaurant",
    "cuisine": "Thai",
    "takout_option": "takeout and delivery (call)",
    "street": "4066 Piedmont Ave.",
    "city": "Oakland",
    "phone": "510-601-6441",
    "website": "NinnaRestaurant.com.",
    "lat": "37.826201",
    "long": "-122.2526",
    "coords": "37.826201,-122.2526"
  },
  {
    "name": "Nông Thôn Restaurant",
    "cuisine": "Vietnamese",
    "takout_option": "takeout and delivery (Caviar)",
    "street": "10086 San Pablo Ave.",
    "city": "El Cerrito",
    "phone": "510-647-8038",
    "website": "NongThonRestaurant.com.",
    "lat": "37.902165",
    "long": "-122.302991",
    "coords": "37.902165,-122.302991"
  },
  {
    "name": "Noodles Fresh",
    "cuisine": "Chinese",
    "takout_option": "takeout and delivery (Caviar, Door Dash)",
    "street": "10042 San Pablo Ave.",
    "city": "El Cerrito",
    "phone": "510-898-1710",
    "website": "NoodlesFresh.com.",
    "lat": "37.901476",
    "long": "-122.302662",
    "coords": "37.901476,-122.302662"
  },
  {
    "name": "Nyum Bai",
    "cuisine": "Cambodian",
    "takout_option": "takeout",
    "street": "3340 E 12th St.",
    "city": "Oakland",
    "phone": "510-500-3338",
    "website": "NyumBai.com.",
    "lat": "37.776255",
    "long": "-122.224236",
    "coords": "37.776255,-122.224236"
  },
  {
    "name": "Obelisco",
    "cuisine": "Mexican",
    "takout_option": "takeout and delivery (Caviar,  Postmates)",
    "street": "3411 E. 12th St.",
    "city": "Oakland",
    "phone": "510-534-3752",
    "website": "ObeliscoRestaurant.com.",
    "lat": "37.775383",
    "long": "-122.223941",
    "coords": "37.775383,-122.223941"
  },
  {
    "name": "Oeste",
    "cuisine": "American",
    "takout_option": "takeout and delivery (DoorDash)",
    "street": "722 Clay St.",
    "city": "Oakland",
    "phone": "510- 817-4157",
    "website": "OesteOakland.com.",
    "lat": "37.800765",
    "long": "-122.276122",
    "coords": "37.800765,-122.276122"
  },
  {
    "name": "Ohana Hawaiian BBQ",
    "cuisine": "Hawaiian",
    "takout_option": "takeout and delivery (DoorDash, Uber Eats)",
    "street": "2661 Blanding Ave.",
    "city": "Oakland",
    "phone": "510-749-7777",
    "website": "",
    "lat": "37.768653",
    "long": "-122.231479",
    "coords": "37.768653,-122.231479"
  },
  {
    "name": "Ole's Waffle Shop",
    "cuisine": "Diner",
    "takout_option": "takeout",
    "street": "1507 Park St.",
    "city": "Alameda",
    "phone": "510-522-8108",
    "website": "OlesWaffleShop.com.",
    "lat": "37.76566",
    "long": "-122.241784",
    "coords": "37.76566,-122.241784"
  },
  {
    "name": "Oliveto",
    "cuisine": "Californian-Italian",
    "takout_option": "takeout and delivery (ChowNow)",
    "street": "5655 College Ave.",
    "city": "Oakland",
    "phone": "510-547-5356",
    "website": "Oliveto.com.",
    "lat": "37.84461",
    "long": "-122.252827",
    "coords": "37.84461,-122.252827"
  },
  {
    "name": "Ono Hawaiian BBQ",
    "cuisine": "Hawaiian",
    "takout_option": "takeout and delivery (DoorDash)",
    "street": "2630 Fifth St.",
    "city": "Alameda",
    "phone": "510-239-4407",
    "website": "OnoHawaiianBBQ.com.",
    "lat": "37.786761",
    "long": "-122.280734",
    "coords": "37.786761,-122.280734"
  },
  {
    "name": "Oori Rice Triangles",
    "cuisine": "Japanese",
    "takout_option": "takeout and delivery (DoorDash, Uber Eats)",
    "street": "1247 Solano Ave.",
    "city": "Albany",
    "phone": "510-526-8663",
    "website": "",
    "lat": "37.89075",
    "long": "-122.293871",
    "coords": "37.89075,-122.293871"
  },
  {
    "name": "Otaez",
    "cuisine": "Mexican",
    "takout_option": "takeout",
    "street": "1619 Webster St.",
    "city": "Alameda",
    "phone": "510-521-9090",
    "website": "OtaezRestaurant.com.",
    "lat": "37.775863",
    "long": "-122.276854",
    "coords": "37.775863,-122.276854"
  },
  {
    "name": "Otaez",
    "cuisine": "Mexican",
    "takout_option": "takeout and delivery (DoorDash, Grubhub)",
    "street": "3872 International Blvd.",
    "city": "Oakland",
    "phone": "510-536-0909",
    "website": "OtaezRestaurant.com.",
    "lat": "37.7746",
    "long": "-122.218984",
    "coords": "37.7746,-122.218984"
  },
  {
    "name": "Pagarung Thai Cuisine",
    "cuisine": "Thai",
    "takout_option": "takeout",
    "street": "6200 Antioch St.",
    "city": "Oakland",
    "phone": "510-339-0566",
    "website": "PagarungThai.com.",
    "lat": "37.825804",
    "long": "-122.208987",
    "coords": "37.825804,-122.208987"
  },
  {
    "name": "Paisan",
    "cuisine": "Pizza",
    "takout_option": "takeout and delivery",
    "street": "2514 San Pablo Ave.",
    "city": "Berkeley",
    "phone": "510-649-1031",
    "website": "PaisanBerkeley.com.",
    "lat": "37.860381",
    "long": "-122.289745",
    "coords": "37.860381,-122.289745"
  },
  {
    "name": "Pampered Pup",
    "cuisine": "Hotdogs",
    "takout_option": "takeout",
    "street": "1401 Park St.",
    "city": "Alameda",
    "phone": "510-521-2321",
    "website": "",
    "lat": "37.764402",
    "long": "-122.242873",
    "coords": "37.764402,-122.242873"
  },
  {
    "name": "Pappo's",
    "cuisine": "American",
    "takout_option": "takeout and delivery",
    "street": "2320 Central Ave.",
    "city": "Alameda",
    "phone": "510-337-9100",
    "website": "PappoRestaurant.com.",
    "lat": "37.764274",
    "long": "-122.243339",
    "coords": "37.764274,-122.243339"
  },
  {
    "name": "Paradise Park Cafe",
    "cuisine": "American",
    "takout_option": "takeout and delivery (Caviar, Door Dash)",
    "street": "6334 San Pablo Ave.",
    "city": "Oakland",
    "phone": "510-756-3131",
    "website": "ParadiseParkCafe.com.",
    "lat": "37.846833",
    "long": "-122.284654",
    "coords": "37.846833,-122.284654"
  },
  {
    "name": "Park Burger",
    "cuisine": "American",
    "takout_option": "takeout and delivery (Caviar, Door Dash)",
    "street": "4218 Park Blvd.",
    "city": "Oakland",
    "phone": "510-479-1402",
    "website": "ParkBurgerOakland.com.",
    "lat": "37.807306",
    "long": "-122.222367",
    "coords": "37.807306,-122.222367"
  },
  {
    "name": "Pasta Bene",
    "cuisine": "Italian",
    "takout_option": "takeout and delivery (Caviar, Door Dash)",
    "street": "2565 Telegraph Ave.",
    "city": "Berkeley",
    "phone": "510-845-2363",
    "website": "pastabenebk.com.",
    "lat": "37.863839",
    "long": "-122.258284",
    "coords": "37.863839,-122.258284"
  },
  {
    "name": "Pasta Pelican Restaurant",
    "cuisine": "American",
    "takout_option": "takeout and delivery (DoorDash)",
    "street": "2455 Mariner Square Dr.",
    "city": "Alameda",
    "phone": "510-864-7427",
    "website": "PastaPelican.com.",
    "lat": "37.791488",
    "long": "-122.277422",
    "coords": "37.791488,-122.277422"
  },
  {
    "name": "Paulista Brazilian Kitchen & Taproom",
    "cuisine": "Brazilian",
    "takout_option": "takeout and delivery (Caviar, Postmates, DoorDash)",
    "street": "4239 Park Blvd.",
    "city": "Oakland",
    "phone": "510-866-2133",
    "website": "Paulista510.com.",
    "lat": "37.807802",
    "long": "-122.222173",
    "coords": "37.807802,-122.222173"
  },
  {
    "name": "Perle Wine Bar",
    "cuisine": "Mediterranean , American",
    "takout_option": "takeout",
    "street": "2058 Mountain Blvd.",
    "city": "Oakland",
    "phone": "510-808-7767",
    "website": "PerleWineBar.com.",
    "lat": "37.826531",
    "long": "-122.209608",
    "coords": "37.826531,-122.209608"
  },
  {
    "name": "Ph? Anh Dao",
    "cuisine": "Vietnamese",
    "takout_option": "takeout",
    "street": "280 E. 18th St.",
    "city": "Oakland",
    "phone": "510-836-1566",
    "website": "",
    "lat": "37.800002",
    "long": "-122.252278",
    "coords": "37.800002,-122.252278"
  },
  {
    "name": "Philomena",
    "cuisine": "Pizza",
    "takout_option": "takeout",
    "street": "1801 14th Ave.",
    "city": "Oakland",
    "phone": "510-532-2399",
    "website": "",
    "lat": "37.792171",
    "long": "-122.242837",
    "coords": "37.792171,-122.242837"
  },
  {
    "name": "Phnom Penh House",
    "cuisine": "Cambodian",
    "takout_option": "takeout",
    "street": "1514 Webster St.",
    "city": "Alameda",
    "phone": "510-893-3825",
    "website": "PhnomPenhHouse.com.",
    "lat": "37.773842",
    "long": "-122.276621",
    "coords": "37.773842,-122.276621"
  },
  {
    "name": "Phnom Penh House Restaurant",
    "cuisine": "Cambodia",
    "takout_option": "takeout",
    "street": "3912 MacArthur Blvd.",
    "city": "Oakland",
    "phone": "510-482-8989",
    "website": "",
    "lat": "37.791018",
    "long": "-122.197767",
    "coords": "37.791018,-122.197767"
  },
  {
    "name": "Pho Houng Que",
    "cuisine": "Vietnamese",
    "takout_option": "takeout and delivery",
    "street": "200 International Blvd.",
    "city": "Oakland",
    "phone": "510-788-4282",
    "website": "",
    "lat": "37.798021",
    "long": "-122.255948",
    "coords": "37.798021,-122.255948"
  },
  {
    "name": "Pho Sinh",
    "cuisine": "Vietnamese",
    "takout_option": "takeout",
    "street": "1434 Park St.",
    "city": "Alameda",
    "phone": "510-769-8836",
    "website": "",
    "lat": "37.765024",
    "long": "-122.241932",
    "coords": "37.765024,-122.241932"
  },
  {
    "name": "Pho Vy",
    "cuisine": "Vietnamese",
    "takout_option": "takeout and delivery (Postmates)",
    "street": "401 International Blvd.",
    "city": "Oakland",
    "phone": "510-893-2827",
    "website": "",
    "lat": "37.796212",
    "long": "-122.254784",
    "coords": "37.796212,-122.254784"
  },
  {
    "name": "Pizza Guys",
    "cuisine": "Pizza",
    "takout_option": "takeout and delivery",
    "street": "3522 Foothill Blvd.",
    "city": "Oakland",
    "phone": "510-533-2222",
    "website": "",
    "lat": "37.781954",
    "long": "-122.21886",
    "coords": "37.781954,-122.21886"
  },
  {
    "name": "Pizzaiolo",
    "cuisine": "Italian, Pizza",
    "takout_option": "takeout and delivery (Caviar, Grubhub)",
    "street": "5008 Telegraph Ave.",
    "city": "Oakland",
    "phone": "",
    "website": "PizzaioloOakland.com.",
    "lat": "37.836539",
    "long": "-122.261929",
    "coords": "37.836539,-122.261929"
  },
  {
    "name": "Plank",
    "cuisine": "American",
    "takout_option": "takeout",
    "street": "98 Broadway",
    "city": "Oakland",
    "phone": "510-817-0980",
    "website": "PlankOakland.com.",
    "lat": "37.79535",
    "long": "-122.276783",
    "coords": "37.79535,-122.276783"
  },
  {
    "name": "Poke Koma",
    "cuisine": "Poke",
    "takout_option": "takeout and delivery (Grubhub,  Postmates)",
    "street": "1354 Park St.",
    "city": "Oakland",
    "phone": "510-227-5519",
    "website": "",
    "lat": "37.763784",
    "long": "-122.242973",
    "coords": "37.763784,-122.242973"
  },
  {
    "name": "Poke Zone",
    "cuisine": "Poke",
    "takout_option": "takeout",
    "street": "329 11th St.",
    "city": "Oakland",
    "phone": "510-628-0988",
    "website": "",
    "lat": "37.800998",
    "long": "-122.269613",
    "coords": "37.800998,-122.269613"
  },
  {
    "name": "Popoca Oakland",
    "cuisine": "Salvadoran",
    "takout_option": "takeout and delivery",
    "street": "411 26th St.",
    "city": "Oakland",
    "phone": "510-457-1724",
    "website": "PopocaOakland.com.",
    "lat": "37.814946",
    "long": "-122.266612",
    "coords": "37.814946,-122.266612"
  },
  {
    "name": "Powderface Café",
    "cuisine": "Coffee and Tea",
    "takout_option": "takeout",
    "street": "3411 East 12th St.",
    "city": "Oakland",
    "phone": "510-536-3223",
    "website": "PowderFaceCafe.com/home.html.",
    "lat": "37.775383",
    "long": "-122.223941",
    "coords": "37.775383,-122.223941"
  },
  {
    "name": "Pretty Lady",
    "cuisine": "Breakfast, Lunch",
    "takout_option": "takeout",
    "street": "1733 Peralta St.",
    "city": "Oakland",
    "phone": "510-350-7208",
    "website": "PrettyLadyRestaurant.squarespace.com.",
    "lat": "37.814044",
    "long": "-122.292197",
    "coords": "37.814044,-122.292197"
  },
  {
    "name": "Proposition Chicken",
    "cuisine": "Chicken",
    "takout_option": "takeout and delivery (Caviar, DoorDash, GrubHub Postmates, Uber Eats)",
    "street": "3260 Lakeshore Ave.",
    "city": "Oakland",
    "phone": "510-808-5172",
    "website": "PropositionChicken.",
    "lat": "37.810183",
    "long": "-122.245447",
    "coords": "37.810183,-122.245447"
  },
  {
    "name": "Pucquio",
    "cuisine": "Peruvian",
    "takout_option": "takeout and delivery (Grubhub, Postmates, UberEats)",
    "street": "5337 College Ave.",
    "city": "Oakland",
    "phone": "510-658-7378",
    "website": "Pucquio.com.",
    "lat": "37.838755",
    "long": "-122.251542",
    "coords": "37.838755,-122.251542"
  },
  {
    "name": "Pyeong Chang Tofu House",
    "cuisine": "Korean",
    "takout_option": "takeout and delivery (Caviar, Door Dash)",
    "street": "4701 Telegraph Ave.",
    "city": "Oakland",
    "phone": "510-658-9040",
    "website": "",
    "lat": "37.834511",
    "long": "-122.263406",
    "coords": "37.834511,-122.263406"
  },
  {
    "name": "Qi Dumpling Lounge",
    "cuisine": "Chinese",
    "takout_option": "takeout and delivery (Caviar, Grubhub, Postmates)",
    "street": "3300 Grand Ave.",
    "city": "Oakland",
    "phone": "510-823-2082",
    "website": "",
    "lat": "37.812705",
    "long": "-122.246782",
    "coords": "37.812705,-122.246782"
  },
  {
    "name": "R' Noodles",
    "cuisine": "Chinese",
    "takout_option": "takeout",
    "street": "930 Webster St.",
    "city": "Oakland",
    "phone": "510-250-9707",
    "website": "",
    "lat": "37.800088",
    "long": "-122.270722",
    "coords": "37.800088,-122.270722"
  },
  {
    "name": "Rang Dong Restaurant",
    "cuisine": "Chinese",
    "takout_option": "takeout and delivery (DoorDash, Grubhub)",
    "street": "724th St.",
    "city": "Oakland",
    "phone": "510-835-8375",
    "website": "",
    "lat": "37.786027",
    "long": "-122.223779",
    "coords": "37.786027,-122.223779"
  },
  {
    "name": "Reina's Restaurant",
    "cuisine": "Salvadoran",
    "takout_option": "takeout",
    "street": "9102 International Blvd.",
    "city": "Oakland",
    "phone": "510-577-0776",
    "website": "",
    "lat": "37.749292",
    "long": "-122.17388",
    "coords": "37.749292,-122.17388"
  },
  {
    "name": "Rendez-Vous Cafe Bistro",
    "cuisine": "French",
    "takout_option": "takeout and delivery (Uber Eats)",
    "street": "1111 Solano Ave.",
    "city": "Albany",
    "phone": "510-527-4111",
    "website": "RendezvousCafeBistro.com.",
    "lat": "37.890478",
    "long": "-122.298349",
    "coords": "37.890478,-122.298349"
  },
  {
    "name": "Rick & Ann's",
    "cuisine": "American",
    "takout_option": "takeout",
    "street": "2922 Domingo Ave.",
    "city": "Berkeley",
    "phone": "510-649-8538",
    "website": "RickAndAnns.com.",
    "lat": "37.858559",
    "long": "-122.244142",
    "coords": "37.858559,-122.244142"
  },
  {
    "name": "Rico Rico Taco",
    "cuisine": "Mexican",
    "takout_option": "takeout and deliver (DoorDash)",
    "street": "3205 Lakeshore Blvd.",
    "city": "Oakland",
    "phone": "510-922-8262",
    "website": "RicoRicoTaco.com",
    "lat": "37.810542",
    "long": "-122.24537",
    "coords": "37.810542,-122.24537"
  },
  {
    "name": "Rikyu Japanese Restaurant",
    "cuisine": "Japanese",
    "takout_option": "takeout and delivery (DoorDash, Grubhub)",
    "street": "5335 College Ave.",
    "city": "Oakland",
    "phone": "510-595-7388",
    "website": "RikyuSushi.com.",
    "lat": "37.838842",
    "long": "-122.251622",
    "coords": "37.838842,-122.251622"
  },
  {
    "name": "Rosamunde Sausage Grill",
    "cuisine": "American",
    "takout_option": "takeout and delivery (Caviar, DoorDash, GrubHub Postmates, Uber Eats)",
    "street": "911 Washington St.",
    "city": "Oakland",
    "phone": "510-338-310",
    "website": "RosamundeSausageGrill.com",
    "lat": "37.801473",
    "long": "-122.274725",
    "coords": "37.801473,-122.274725"
  },
  {
    "name": "Rudy's Can't Fail Café",
    "cuisine": "American",
    "takout_option": "takeout and delivery (DoorDash)",
    "street": "4081 Hollis St.",
    "city": "Emeryville",
    "phone": "510-594-1221",
    "website": "IAmRudy.com.",
    "lat": "37.830937",
    "long": "-122.285925",
    "coords": "37.830937,-122.285925"
  },
  {
    "name": "Rustica Pizza",
    "cuisine": "Pizza",
    "takout_option": "takeout and delivery",
    "street": "6106 La Salle Ave.",
    "city": "Oakland",
    "phone": "510-654-1601",
    "website": "Rustica-Pizza.com.",
    "lat": "37.826155",
    "long": "-122.210412",
    "coords": "37.826155,-122.210412"
  },
  {
    "name": "Saucy Oakland",
    "cuisine": "Fusion",
    "takout_option": "takeout and delivery (Caviar)",
    "street": "3932 Telegraph Ave.",
    "city": "Oakland",
    "phone": "510-879-7806",
    "website": "SaucyOakland.com.",
    "lat": "37.82863",
    "long": "-122.264547",
    "coords": "37.82863,-122.264547"
  },
  {
    "name": "Seawolf Public House",
    "cuisine": "Pub",
    "takout_option": "takeout (call)",
    "street": "350 Fourth St.",
    "city": "Oakland",
    "phone": "510-891-1660",
    "website": "Seawolf.pub.",
    "lat": "37.796638",
    "long": "-122.272736",
    "coords": "37.796638,-122.272736"
  },
  {
    "name": "Sequoia Diner",
    "cuisine": "Diner",
    "takout_option": "takeout (call)",
    "street": "3719 MacArthur Blvd.",
    "city": "Oakland",
    "phone": "510-482-3719",
    "website": "SequoiaDiner.com/about-2.",
    "lat": "37.792059",
    "long": "-122.19938",
    "coords": "37.792059,-122.19938"
  },
  {
    "name": "Shakewell",
    "cuisine": "Mediterranean",
    "takout_option": "takeout and delivery (Caviar, Grubhub, Postmates, UberEats)",
    "street": "3407 Lakeshore Ave.",
    "city": "Oakland",
    "phone": "510-307-8516",
    "website": "ShakeWellOakland.com.",
    "lat": "37.811375",
    "long": "-122.243144",
    "coords": "37.811375,-122.243144"
  },
  {
    "name": "Shan Dong Restaurant",
    "cuisine": "Chinese",
    "takout_option": "takeout and delivery (Caviar, Door Dash)",
    "street": "328 10th St.",
    "city": "Oakland",
    "phone": "510-839-2299",
    "website": "ShandongOakland.com.",
    "lat": "37.80055",
    "long": "-122.269854",
    "coords": "37.80055,-122.269854"
  },
  {
    "name": "Shawarmaji",
    "cuisine": "Mediterranean",
    "takout_option": "takeout and delivery (Caviar)",
    "street": "478 25th St.",
    "city": "Oakland",
    "phone": "510-397-9817",
    "website": "",
    "lat": "37.81472",
    "long": "-122.267178",
    "coords": "37.81472,-122.267178"
  },
  {
    "name": "Shiba Ramen Oakland",
    "cuisine": "Ramen",
    "takout_option": "takeout and delivery (Caviar, Door Dash)",
    "street": "1438 Broadway",
    "city": "Oakland",
    "phone": "857-544-4968",
    "website": "ShibaRamen.com.",
    "lat": "37.804612",
    "long": "-122.270863",
    "coords": "37.804612,-122.270863"
  },
  {
    "name": "Shogun Japanese Sushi & Grill",
    "cuisine": "Japanese",
    "takout_option": "takeout and delivery (Caviar, Grubhub, Uber Eats)",
    "street": "3417 Grand Ave.",
    "city": "Oakland",
    "phone": "510-499-8639",
    "website": "ShogunJapaneseOakland.com.",
    "lat": "37.81393",
    "long": "-122.24673",
    "coords": "37.81393,-122.24673"
  },
  {
    "name": "Shooting Star Café",
    "cuisine": "Coffee and Tea",
    "takout_option": "takeout and delivery (Caviar, DoorDash, GrubHub Postmates, Uber Eats)",
    "street": "1022 Webster St.",
    "city": "Oakland",
    "phone": "510-251-9882",
    "website": "ShootingStarhkCafe.com.",
    "lat": "37.800907",
    "long": "-122.27",
    "coords": "37.800907,-122.27"
  },
  {
    "name": "Sláinte Oakland",
    "cuisine": "Irish",
    "takout_option": "takeout (call)",
    "street": "131 Broadway",
    "city": "Oakland",
    "phone": "510-823-2644",
    "website": "SlainteOakland.com.",
    "lat": "37.796028",
    "long": "-122.276771",
    "coords": "37.796028,-122.276771"
  },
  {
    "name": "Sliver Pizzeria",
    "cuisine": "Pizza",
    "takout_option": "takeout and delivery (Grubhub, Uber Eats)",
    "street": "2174 Shattuck Ave.",
    "city": "Berkeley",
    "phone": "510-705-1988",
    "website": "SliverPizzeria.com.",
    "lat": "37.869772",
    "long": "-122.268468",
    "coords": "37.869772,-122.268468"
  },
  {
    "name": "Sliver Pizzeria",
    "cuisine": "Pizza",
    "takout_option": "takeout and delivery (Uber Eats)",
    "street": "2468 Telegraph Ave.",
    "city": "Berkeley",
    "phone": "510-356-4044",
    "website": "SliverPizzeria.com.",
    "lat": "37.865605",
    "long": "-122.258815",
    "coords": "37.865605,-122.258815"
  },
  {
    "name": "Smokin Woods BBQ",
    "cuisine": "Barbecue",
    "takout_option": "takeout and delivery (Caviar, Door Dash)",
    "street": "4307 Telegraph Ave.",
    "city": "Oakland",
    "phone": "510-423-8634",
    "website": "SmokinWoodsBBQ.com.",
    "lat": "37.831861",
    "long": "-122.264167",
    "coords": "37.831861,-122.264167"
  },
  {
    "name": "Snow White Coffee Bar",
    "cuisine": "Coffee",
    "takout_option": "takeout",
    "street": "3824 Piedmont Ave.",
    "city": "Oakland",
    "phone": "510-808-7655",
    "website": "SnowWhiteCoffee.com.",
    "lat": "37.824064",
    "long": "-122.255071",
    "coords": "37.824064,-122.255071"
  },
  {
    "name": "Sobo Ramen",
    "cuisine": "Ramen",
    "takout_option": "takeout and delivery (Caviar, DoorDash, GrubHub Postmates, Uber Eats)",
    "street": "988 Franklin St.",
    "city": "Oakland",
    "phone": "510-832-7626",
    "website": "SoboRamen.com.",
    "lat": "37.800795",
    "long": "-122.271511",
    "coords": "37.800795,-122.271511"
  },
  {
    "name": "Soi 4",
    "cuisine": "Thai",
    "takout_option": "takeout and delivery (Caviar)",
    "street": "5421 College Ave.",
    "city": "Oakland",
    "phone": "510-655-0889",
    "website": "SoiFour.com.",
    "lat": "37.84065",
    "long": "-122.251606",
    "coords": "37.84065,-122.251606"
  },
  {
    "name": "Souley Vegan",
    "cuisine": "Vegan",
    "takout_option": "takeout (call) and delivery (Caviar, Grubhub)",
    "street": "301 Broadway",
    "city": "Oakland",
    "phone": "510-922-1615",
    "website": "SouleyVegan.com.",
    "lat": "37.797024",
    "long": "-122.276101",
    "coords": "37.797024,-122.276101"
  },
  {
    "name": "Southie",
    "cuisine": "American",
    "takout_option": "takeout and delivery (Caviar, DoorDash, GrubHub)",
    "street": "6311 College Ave.",
    "city": "Oakland",
    "phone": "510-654-0100",
    "website": "SouthieOakland.com.",
    "lat": "37.85069",
    "long": "-122.252713",
    "coords": "37.85069,-122.252713"
  },
  {
    "name": "Sparky's Giant Burgers",
    "cuisine": "Burgers",
    "takout_option": "takeout",
    "street": "4120 Redwood Road",
    "city": "Oakland",
    "phone": "510-531-5617",
    "website": "SparkysGiantBurgers.food94.com.",
    "lat": "37.796968",
    "long": "-122.182478",
    "coords": "37.796968,-122.182478"
  },
  {
    "name": "Speisekammer",
    "cuisine": "German",
    "takout_option": "takeout and delivery",
    "street": "2424 Lincoln Ave.",
    "city": "Alameda",
    "phone": "510-522-1300",
    "website": "Speisekammer.com.",
    "lat": "37.766064",
    "long": "-122.239971",
    "coords": "37.766064,-122.239971"
  },
  {
    "name": "Spices 3",
    "cuisine": "Chinese",
    "takout_option": "takeout and delivery (Caviar, DoorDash, GrubHub, UberEats)",
    "street": "370-372 12th St.",
    "city": "Oakland",
    "phone": "510-625-8889",
    "website": "",
    "lat": "37.802316",
    "long": "-122.27004",
    "coords": "37.802316,-122.27004"
  },
  {
    "name": "Spices Noodle House",
    "cuisine": "Chinese",
    "takout_option": "takeout and delivery (Caviar, Door Dash, Grubhub, Uber Eats)",
    "street": "369 12th St.",
    "city": "Oakland",
    "phone": "510-250-9577",
    "website": "",
    "lat": "37.802041",
    "long": "-122.270161",
    "coords": "37.802041,-122.270161"
  },
  {
    "name": "Spinning Bones",
    "cuisine": "American",
    "takout_option": "takeout and delivery (Caviar, DoorDash, GrubHub)",
    "street": "1205 Park St.",
    "city": "Alameda",
    "phone": "",
    "website": "SpinningBones.com.",
    "lat": "37.76106",
    "long": "-122.245631",
    "coords": "37.76106,-122.245631"
  },
  {
    "name": "Sticky Rice Café",
    "cuisine": "Laotian, Thai",
    "takout_option": "takeout and delivery (Caviar, Uber Eats)",
    "street": "2810 International Blvd.",
    "city": "Oakland",
    "phone": "510-536-4605",
    "website": "",
    "lat": "37.779869",
    "long": "-122.229503",
    "coords": "37.779869,-122.229503"
  },
  {
    "name": "Summer Summer Thai Eatery",
    "cuisine": "Asian, Thai",
    "takout_option": "takeout and delivery (Caviar and DoorDash)",
    "street": "5885 Hollis St.",
    "city": "Emeryville",
    "phone": "510-658-3234",
    "website": "SummerSummerThai.com/",
    "lat": "37.841094",
    "long": "-122.289892",
    "coords": "37.841094,-122.289892"
  },
  {
    "name": "Sun Hing Restaurant",
    "cuisine": "Chinese",
    "takout_option": "takeout and delivery",
    "street": "386 Eighth St.",
    "city": "Oakland",
    "phone": "510-836-1819",
    "website": "",
    "lat": "37.799766",
    "long": "-122.271955",
    "coords": "37.799766,-122.271955"
  },
  {
    "name": "Sushi House",
    "cuisine": "Japanese",
    "takout_option": "takeout",
    "street": "2375 Shoreline Dr.",
    "city": "Alameda",
    "phone": "510-865-0999",
    "website": "E-SushiHouse.com.",
    "lat": "37.754646",
    "long": "-122.250524",
    "coords": "37.754646,-122.250524"
  },
  {
    "name": "Sweet Bar Bakery",
    "cuisine": "Bakery",
    "takout_option": "takeout",
    "street": "2355 Broadway",
    "city": "Oakland",
    "phone": "510-788-4997",
    "website": "SweetBarBakery.com",
    "lat": "37.812901",
    "long": "-122.266114",
    "coords": "37.812901,-122.266114"
  },
  {
    "name": "Sweetheart Café & Tea",
    "cuisine": "Bakery",
    "takout_option": "takeout",
    "street": "315 Ninth St.",
    "city": "Oakland",
    "phone": "510-835-8136",
    "website": "",
    "lat": "37.799492",
    "long": "-122.270175",
    "coords": "37.799492,-122.270175"
  },
  {
    "name": "T 4",
    "cuisine": "Dim Sum",
    "takout_option": "takeout and delivery (DoorDash)",
    "street": "1068 Webster St.",
    "city": "Oakland",
    "phone": "510-251-1068",
    "website": "",
    "lat": "37.801036",
    "long": "-122.270151",
    "coords": "37.801036,-122.270151"
  },
  {
    "name": "Tacos Sinaloa",
    "cuisine": "Tacos",
    "takout_option": "takeout",
    "street": "2138 International Blvd.",
    "city": "Oakland",
    "phone": "510-535-1206",
    "website": "",
    "lat": "37.784965",
    "long": "-122.237904",
    "coords": "37.784965,-122.237904"
  },
  {
    "name": "Tamarack",
    "cuisine": "Bar",
    "takout_option": "takeout (visit website)",
    "street": "1501 Harrison St.",
    "city": "Oakland",
    "phone": "510-788-7545",
    "website": "TamarackOakland.com.",
    "lat": "37.804068",
    "long": "-122.267095",
    "coords": "37.804068,-122.267095"
  },
  {
    "name": "Tao Yuen Pastry",
    "cuisine": "Bakery",
    "takout_option": "takeout (call)",
    "street": "816 Franklin St.",
    "city": "Oakland",
    "phone": "510-834-9200",
    "website": "",
    "lat": "37.799761",
    "long": "-122.27238",
    "coords": "37.799761,-122.27238"
  },
  {
    "name": "Taqueria Los Compadres",
    "cuisine": "Mexican",
    "takout_option": "delivery",
    "street": "2081 Mountain Blvd.",
    "city": "Oakland",
    "phone": "510-339-9002",
    "website": "TaqueriaLasComadres.com.",
    "lat": "37.826373",
    "long": "-122.209493",
    "coords": "37.826373,-122.209493"
  },
  {
    "name": "Taqueria Talavera",
    "cuisine": "Mexican",
    "takout_option": "takeout and delivery (Postmates).",
    "street": "1561 Solano Ave.",
    "city": "Berkeley",
    "phone": "510-558-8565",
    "website": "",
    "lat": "37.891162",
    "long": "-122.28558",
    "coords": "37.891162,-122.28558"
  },
  {
    "name": "Taste Steam Kitchen",
    "cuisine": "Chinese",
    "takout_option": "takeout",
    "street": "329 11th St.",
    "city": "Oakland",
    "phone": "510-628-0988",
    "website": "",
    "lat": "37.800998",
    "long": "-122.269613",
    "coords": "37.800998,-122.269613"
  },
  {
    "name": "Tay Ho Oakland Restaurant & Bar",
    "cuisine": "Vietnamese",
    "takout_option": "takeout and delivery (Caviar)",
    "street": "344 12th St.",
    "city": "Oakland",
    "phone": "",
    "website": "TayHo-oakland.com.",
    "lat": "37.802114",
    "long": "-122.269233",
    "coords": "37.802114,-122.269233"
  },
  {
    "name": "The Cheese Steak Shop",
    "cuisine": "Sandwiches",
    "takout_option": "takeout (call) and delivery (DoorDash, Grubhub)",
    "street": "3808 Lakeshore",
    "city": "Oakland",
    "phone": "510-832-6717",
    "website": "",
    "lat": "37.814238",
    "long": "-122.238479",
    "coords": "37.814238,-122.238479"
  },
  {
    "name": "The Coffee Mill",
    "cuisine": "Coffee",
    "takout_option": "takeout and delivery (DoorDash, Grubhub, Postmates, UberEats)",
    "street": "3363 Grand Ave.",
    "city": "Oakland",
    "phone": "510-465-4224",
    "website": "",
    "lat": "37.813566",
    "long": "-122.246965",
    "coords": "37.813566,-122.246965"
  },
  {
    "name": "The Cook and Her Farmer",
    "cuisine": "Seafood",
    "takout_option": "takeout and delivery (Caviar)",
    "street": "907 Washington St.",
    "city": "Oakland",
    "phone": "510-285-6140",
    "website": "TheCookAndHerFarmer.com.",
    "lat": "37.801755",
    "long": "-122.274615",
    "coords": "37.801755,-122.274615"
  },
  {
    "name": "The Damel",
    "cuisine": "Brazilian, African",
    "takout_option": "takeout and delivery (DoorDash, Grubhub, Postmates)",
    "street": "2507 Broadway",
    "city": "Oakland",
    "phone": "510-409-5601",
    "website": "TheDamel.com.",
    "lat": "37.814256",
    "long": "-122.265272",
    "coords": "37.814256,-122.265272"
  },
  {
    "name": "The Halal Guys",
    "cuisine": "Middle Eastern",
    "takout_option": "takeout and delivery (DoorDash, Grubhub, UberEats)",
    "street": "2126 Center St.",
    "city": "Berkeley",
    "phone": "510756-3123",
    "website": "TheHalalGuys.com.",
    "lat": "37.870126",
    "long": "-122.26719",
    "coords": "37.870126,-122.26719"
  },
  {
    "name": "The Kebabery",
    "cuisine": "Kebabs",
    "takout_option": "takeout",
    "street": "4201 Market St.",
    "city": "Oakland",
    "phone": "510-922-1601",
    "website": "TheKebaberyOakland.com.",
    "lat": "37.846916",
    "long": "-122.267209",
    "coords": "37.846916,-122.267209"
  },
  {
    "name": "The Kon-Tiki",
    "cuisine": "Bar Food",
    "takout_option": "takeout and delivery (Postmates, DoorDash)",
    "street": "347 14th St.",
    "city": "Oakland",
    "phone": "510-823-2332",
    "website": "TheKon-TikiOakland.com.",
    "lat": "37.803112",
    "long": "-122.268604",
    "coords": "37.803112,-122.268604"
  },
  {
    "name": "The Lumpia Company",
    "cuisine": "Filipino",
    "takout_option": "takeout and delivery (Postmates, DoorDash)",
    "street": "372 24th St.",
    "city": "Oakland",
    "phone": "510-835-5885",
    "website": "TheLumpiaCompany.com.",
    "lat": "37.813405",
    "long": "-122.264579",
    "coords": "37.813405,-122.264579"
  },
  {
    "name": "The Oaks Corner",
    "cuisine": "Chinese and American",
    "takout_option": "takeout and delivery",
    "street": "4099 San Pablo Ave.",
    "city": "Emeryville",
    "phone": "510-652-2259",
    "website": "theoakscorner.com/",
    "lat": "37.832134",
    "long": "-122.280507",
    "coords": "37.832134,-122.280507"
  },
  {
    "name": "The Saap Avenue",
    "cuisine": "Laotian",
    "takout_option": "takeout and delivery (Caviar).",
    "street": "4395 Piedmont Ave.",
    "city": "Oakland",
    "phone": "510-361-6498",
    "website": "TheSaapAvenue.com.",
    "lat": "37.830266",
    "long": "-122.247799",
    "coords": "37.830266,-122.247799"
  },
  {
    "name": "The Star on Grand",
    "cuisine": "Pizza",
    "takout_option": "takeout and delivery (Caviar).",
    "street": "3425 Grand Ave.",
    "city": "Oakland",
    "phone": "510-843-7827",
    "website": "TheStarOnGrand.com.",
    "lat": "37.814322",
    "long": "-122.246585",
    "coords": "37.814322,-122.246585"
  },
  {
    "name": "The Star on Park",
    "cuisine": "Pizza",
    "takout_option": "(DoorDash, Uber Eats)",
    "street": "1400 Park St.",
    "city": "Alameda",
    "phone": "510-832-7827",
    "website": "TheStarOnPark.com.",
    "lat": "37.764274",
    "long": "-122.24254",
    "coords": "37.764274,-122.24254"
  },
  {
    "name": "The Sunny Side Café",
    "cuisine": "Breakfast",
    "takout_option": "takeout and delivery (DoorDash)",
    "street": "2136 Oxford St.",
    "city": "Berkeley",
    "phone": "510-845-9900",
    "website": "TheSunnySidecafe.com.",
    "lat": "37.870316",
    "long": "-122.266093",
    "coords": "37.870316,-122.266093"
  },
  {
    "name": "The Veg Hub",
    "cuisine": "Vegan",
    "takout_option": "delivery (Grubhub)",
    "street": "2214 MacArthur Blvd.",
    "city": "Oakland",
    "phone": "510- 842-8246",
    "website": "TheVegHub.com.",
    "lat": "37.80063",
    "long": "-122.215719",
    "coords": "37.80063,-122.215719"
  },
  {
    "name": "The Well Organic Kitchen",
    "cuisine": "Café",
    "takout_option": "takeout and delivery (Caviar, DoorDash, GrubHub, Postmates, UberEats)",
    "street": "5443 Telegraph Ave.",
    "city": "Oakland",
    "phone": "510-808-7315",
    "website": "TheWellOrganicKitchen.com.",
    "lat": "37.839402",
    "long": "-122.262293",
    "coords": "37.839402,-122.262293"
  },
  {
    "name": "The Wolf",
    "cuisine": "American",
    "takout_option": "takeout (call)",
    "street": "3853 Piedmont Ave.",
    "city": "Oakland",
    "phone": "510-879-7953",
    "website": "TheWolfOakland.com/",
    "lat": "37.824713",
    "long": "-122.25511",
    "coords": "37.824713,-122.25511"
  },
  {
    "name": "Tigerlily Berkeley",
    "cuisine": "Indian",
    "takout_option": "takeout and delivery (DoorDash, Uber Eats)",
    "street": "1513 Shattuck Ave.",
    "city": "Berkeley",
    "phone": "510-540-7900",
    "website": "Tigerlily-Berkeley.com.",
    "lat": "37.879812",
    "long": "-122.268896",
    "coords": "37.879812,-122.268896"
  },
  {
    "name": "Touch of Soul",
    "cuisine": "Soul Food",
    "takout_option": "takeout and delivery (Uber Eats)",
    "street": "4336 San Pablo Ave.",
    "city": "Emeryville",
    "phone": "510-595-1227",
    "website": "Touch-of-Soul.business.site.",
    "lat": "37.834291",
    "long": "-122.280678",
    "coords": "37.834291,-122.280678"
  },
  {
    "name": "Trap Kitchen",
    "cuisine": "Cajun/Creole",
    "takout_option": "takeout and delivery (DoorDash, Uber Eats)",
    "street": "420 14th St.",
    "city": "Oakland",
    "phone": "510-610-4454",
    "website": "",
    "lat": "37.804256",
    "long": "-122.270302",
    "coords": "37.804256,-122.270302"
  },
  {
    "name": "Trattoria La Siciliana",
    "cuisine": "Italian",
    "takout_option": "takeout and delivery (DoorDash, Uber Eats, Grubhub)",
    "street": "2993 College Ave",
    "city": "Berkeley",
    "phone": "510-704-1474",
    "website": "TrattoriaLaSiciliana.com/.",
    "lat": "37.856412",
    "long": "-122.252668",
    "coords": "37.856412,-122.252668"
  },
  {
    "name": "TrueBurger",
    "cuisine": "Burgers",
    "takout_option": "delivery (Caviar)",
    "street": "146 Grand Ave.",
    "city": "Oakland",
    "phone": "510-208-5678",
    "website": "TrueBurgerOakland.com.",
    "lat": "37.811507",
    "long": "-122.264025",
    "coords": "37.811507,-122.264025"
  },
  {
    "name": "Two Mama's Vegan Kitchen",
    "cuisine": "Vegan",
    "takout_option": "takeout (call) and delivery (DoorDash, Grubhub)",
    "street": "3700 E. 12th St.",
    "city": "Oakland",
    "phone": "510-606-0596",
    "website": "",
    "lat": "37.774114",
    "long": "-122.221363",
    "coords": "37.774114,-122.221363"
  },
  {
    "name": "Vegan Mob",
    "cuisine": "Vegan",
    "takout_option": "takeout and delivery (Caviar, Uber Eats)",
    "street": "500 Lake Park Ave.",
    "city": "Oakland",
    "phone": "415-513-5120",
    "website": "SFVeganMob.com/.",
    "lat": "37.810646",
    "long": "-122.24691",
    "coords": "37.810646,-122.24691"
  },
  {
    "name": "Vietnam Grille",
    "cuisine": "Vietnamese",
    "takout_option": "takeout and delivery (Seamless Grubhub, DoorDash)",
    "street": "10386 San Pablo Ave",
    "city": "El Cerrito",
    "phone": "510-559-8083",
    "website": "",
    "lat": "37.907582",
    "long": "-122.305915",
    "coords": "37.907582,-122.305915"
  },
  {
    "name": "Wally's Café",
    "cuisine": "Lebanese,  Mediterranean",
    "takout_option": "takeout and delivery (DoorDash)",
    "street": "3900 San Pablo Ave.",
    "city": "Emeryville",
    "phone": "510-597-1303",
    "website": "",
    "lat": "37.830146",
    "long": "-122.279355",
    "coords": "37.830146,-122.279355"
  },
  {
    "name": "Wazwan Indian Cuisine",
    "cuisine": "Indian",
    "takout_option": "takeout and delivery (DoorDash)",
    "street": "5959 Shellmound St.",
    "city": "Emeryville",
    "phone": "510-655-3398",
    "website": "WazwanEmeryville.site.",
    "lat": "37.841483",
    "long": "-122.293687",
    "coords": "37.841483,-122.293687"
  },
  {
    "name": "White Lotus",
    "cuisine": "Thai",
    "takout_option": "takeout",
    "street": "843 San Pablo Ave",
    "city": "Albany",
    "phone": "510-525-2791",
    "website": "WhiteLotusThaiAlbany.com.",
    "lat": "37.890673",
    "long": "-122.298811",
    "coords": "37.890673,-122.298811"
  },
  {
    "name": "Wild Ginger",
    "cuisine": "Chinese",
    "takout_option": "takeout and delivery",
    "street": "1239 Park St.",
    "city": "Alameda",
    "phone": "510-263-8128",
    "website": "",
    "lat": "37.762008",
    "long": "-122.244914",
    "coords": "37.762008,-122.244914"
  },
  {
    "name": "Wood Tavern",
    "cuisine": "American",
    "takout_option": "takeout and delivery (Grubhub, Uber Eats)",
    "street": "6317 College Ave.",
    "city": "Oakland",
    "phone": "510-654-6607",
    "website": "WoodTavern.net.",
    "lat": "37.850452",
    "long": "-122.252609",
    "coords": "37.850452,-122.252609"
  },
  {
    "name": "World Famous Hotboys",
    "cuisine": "Southern",
    "takout_option": "takeout and delivery (DoorDash, Grubhub, Postmates, UberEats)",
    "street": "1601 San Pablo Ave.",
    "city": "Oakland",
    "phone": "",
    "website": "WorldFamousHotboys.com.",
    "lat": "37.806701",
    "long": "-122.272355",
    "coords": "37.806701,-122.272355"
  },
  {
    "name": "Xolo Taqueria",
    "cuisine": "Mexican",
    "takout_option": "takeout and delivery (Caviar)",
    "street": "1916 Telegraph Ave.",
    "city": "Oakland",
    "phone": "510-986-0151",
    "website": "XoloTaqueria.com.",
    "lat": "37.808229",
    "long": "-122.269566",
    "coords": "37.808229,-122.269566"
  },
  {
    "name": "Yang Chow Restaurant",
    "cuisine": "Chinese",
    "takout_option": "takeout and delivery (DoorDash, Grubhub, Postmates)",
    "street": "3211 Grand Ave.",
    "city": "Oakland",
    "phone": "510-444-1771",
    "website": "YangChowRestaurant.com.",
    "lat": "37.812412",
    "long": "-122.247688",
    "coords": "37.812412,-122.247688"
  },
  {
    "name": "Yaya Poke",
    "cuisine": "Poke",
    "takout_option": "takeout and delivery (Postmates, Uber Eats)",
    "street": "388 Ninth St. #101",
    "city": "Oakland",
    "phone": "415-598-9012",
    "website": "",
    "lat": "37.800353",
    "long": "-122.271379",
    "coords": "37.800353,-122.271379"
  },
  {
    "name": "Yoshi's",
    "cuisine": "Japanese",
    "takout_option": "takeout",
    "street": "510 Embarcadero West",
    "city": "Oakland",
    "phone": "510-238-9200",
    "website": "Yoshis.com.",
    "lat": "37.795358",
    "long": "-122.276932",
    "coords": "37.795358,-122.276932"
  },
  {
    "name": "Yummy Dim Sum",
    "cuisine": "Dim Sum",
    "takout_option": "takeout",
    "street": "307 10th St.",
    "city": "Oakland",
    "phone": "510-893-3388",
    "website": "",
    "lat": "37.800082",
    "long": "-122.269723",
    "coords": "37.800082,-122.269723"
  },
  {
    "name": "Yung Kee Restaurant",
    "cuisine": "Chinese",
    "takout_option": "",
    "street": "888 Webster St.",
    "city": "Oakland",
    "phone": "510-839-2010",
    "website": "",
    "lat": "37.799814",
    "long": "-122.270896",
    "coords": "37.799814,-122.270896"
  },
  {
    "name": "Yuzu Ramen & Broffee",
    "cuisine": "Japanese",
    "takout_option": "takeout and delivery (Caviar, Postmates, DoorDash, UberEats)",
    "street": "1298 65th St.",
    "city": "Emeryville",
    "phone": "510-853-1525",
    "website": "YuzuRB.com.",
    "lat": "37.847164",
    "long": "-122.290553",
    "coords": "37.847164,-122.290553"
  },
  {
    "name": "Zachary's Chicago Pizza",
    "cuisine": "Pizza",
    "takout_option": "takeout and delivery (Caviar, DoorDash, UberEats)",
    "street": "3917 Grand Ave.",
    "city": "Oakland",
    "phone": "510-658-3226",
    "website": "Zacharys.com.",
    "lat": "37.818413",
    "long": "-122.245234",
    "coords": "37.818413,-122.245234"
  },
  {
    "name": "Zachary's Chicago Pizza",
    "cuisine": "Pizza",
    "takout_option": "takeout and delivery (Caviar, DoorDash, UberEats)",
    "street": "5801 College Ave.",
    "city": "Oakland",
    "phone": "510-655-6385",
    "website": "Zacharys.com.",
    "lat": "37.846278",
    "long": "-122.252162",
    "coords": "37.846278,-122.252162"
  },
  {
    "name": "Zachary's Chicago Pizza",
    "cuisine": "Pizzeria",
    "takout_option": "takeout and delivery (Caviar, Uber Eats)",
    "street": "1853 Solano Ave",
    "city": "Berkeley",
    "phone": "510-525-5950",
    "website": "Zacharys.com.",
    "lat": "37.89169",
    "long": "-122.278533",
    "coords": "37.89169,-122.278533"
  },
  {
    "name": "Zaytoon Mediterranean Restaurant & Bar",
    "cuisine": "Mediterranean",
    "takout_option": "takeout and delivery (Caviar).",
    "street": "1133 Solano Ave",
    "city": "Albany",
    "phone": "510-898-1316",
    "website": "zaytoon510.com.",
    "lat": "37.890521",
    "long": "-122.29773",
    "coords": "37.890521,-122.29773"
  }
]